{ "parkingSpots" :
[{"id":1,"road_name":"Randy","road_suffix":"Lane","longitude":20.2359415,"latitude":44.2267007,"cost_per_hour":1.4,"free_after":"20:30","pay_from":"1:42"},
  {"id":2,"road_name":"Kensington","road_suffix":"Way","longitude":44.0770134,"latitude":9.562389,"cost_per_hour":0.9,"free_after":"21:25","pay_from":"1:03"},
  {"id":3,"road_name":"Donald","road_suffix":"Parkway","longitude":102.495014,"latitude":28.481417,"cost_per_hour":1.2,"free_after":"16:53","pay_from":"5:00"},
  {"id":4,"road_name":"Westend","road_suffix":"Trail","longitude":117.1470637,"latitude":-8.3980126,"cost_per_hour":1.2,"free_after":"19:30","pay_from":"5:11"},
  {"id":5,"road_name":"Lake View","road_suffix":"Road","longitude":117.251586,"latitude":39.128291,"cost_per_hour":0.5,"free_after":"17:09","pay_from":"4:56"},
  {"id":6,"road_name":"Toban","road_suffix":"Pass","longitude":10.4024274,"latitude":63.4400274,"cost_per_hour":0.7,"free_after":"20:53","pay_from":"4:32"},
  {"id":7,"road_name":"Harbort","road_suffix":"Avenue","longitude":45.1445695,"latitude":36.6950261,"cost_per_hour":1.3,"free_after":"18:21","pay_from":"1:51"},
  {"id":8,"road_name":"Kings","road_suffix":"Court","longitude":112.987173,"latitude":22.938069,"cost_per_hour":1.3,"free_after":"17:59","pay_from":"4:28"},
  {"id":9,"road_name":"Oneill","road_suffix":"Park","longitude":-9.3556975,"latitude":38.7074953,"cost_per_hour":1.0,"free_after":"21:34","pay_from":"4:05"},
  {"id":10,"road_name":"Brickson Park","road_suffix":"Circle","longitude":71.4599651,"latitude":32.9005808,"cost_per_hour":2.1,"free_after":"17:13","pay_from":"4:50"},
  {"id":11,"road_name":"Becker","road_suffix":"Terrace","longitude":14.5480484,"latitude":5.8901373,"cost_per_hour":1.3,"free_after":"18:34","pay_from":"0:50"},
  {"id":12,"road_name":"Lotheville","road_suffix":"Way","longitude":10.7673005,"latitude":59.9050895,"cost_per_hour":1.3,"free_after":"16:48","pay_from":"5:55"},
  {"id":13,"road_name":"Farragut","road_suffix":"Point","longitude":20.1093853,"latitude":50.0201,"cost_per_hour":2.2,"free_after":"18:57","pay_from":"1:48"},
  {"id":14,"road_name":"Bobwhite","road_suffix":"Pass","longitude":35.165005,"latitude":46.6974533,"cost_per_hour":1.4,"free_after":"16:13","pay_from":"0:30"},
  {"id":15,"road_name":"Luster","road_suffix":"Court","longitude":-8.3644939,"latitude":41.8157545,"cost_per_hour":1.1,"free_after":"16:48","pay_from":"0:36"},
  {"id":16,"road_name":"Lunder","road_suffix":"Road","longitude":15.4773182,"latitude":45.9402271,"cost_per_hour":1.6,"free_after":"21:11","pay_from":"3:16"},
  {"id":17,"road_name":"Debs","road_suffix":"Junction","longitude":105.2545888,"latitude":23.0029267,"cost_per_hour":1.8,"free_after":"17:18","pay_from":"5:38"},
  {"id":18,"road_name":"Fairfield","road_suffix":"Terrace","longitude":2.3081396,"latitude":49.8905368,"cost_per_hour":1.1,"free_after":"18:55","pay_from":"3:48"},
  {"id":19,"road_name":"Mariners Cove","road_suffix":"Park","longitude":122.899983,"latitude":14.18364,"cost_per_hour":2.1,"free_after":"20:41","pay_from":"1:57"},
  {"id":20,"road_name":"Waxwing","road_suffix":"Center","longitude":136.5175749,"latitude":34.5521789,"cost_per_hour":1.4,"free_after":"22:07","pay_from":"6:09"},
  {"id":21,"road_name":"Vernon","road_suffix":"Road","longitude":-45.1494505,"latitude":-17.1885187,"cost_per_hour":2.0,"free_after":"19:49","pay_from":"0:58"},
  {"id":22,"road_name":"Pennsylvania","road_suffix":"Pass","longitude":116.948097,"latitude":40.381657,"cost_per_hour":1.2,"free_after":"21:01","pay_from":"3:48"},
  {"id":23,"road_name":"Sage","road_suffix":"Lane","longitude":24.4447587,"latitude":36.7252955,"cost_per_hour":2.2,"free_after":"20:35","pay_from":"1:39"},
  {"id":24,"road_name":"Warner","road_suffix":"Lane","longitude":81.516355,"latitude":36.854973,"cost_per_hour":0.8,"free_after":"20:20","pay_from":"0:41"},
  {"id":25,"road_name":"Laurel","road_suffix":"Hill","longitude":35.038365,"latitude":32.035776,"cost_per_hour":1.4,"free_after":"17:21","pay_from":"0:31"},
  {"id":26,"road_name":"Fallview","road_suffix":"Pass","longitude":24.9412435,"latitude":60.1932037,"cost_per_hour":0.7,"free_after":"19:20","pay_from":"0:52"},
  {"id":27,"road_name":"Lunder","road_suffix":"Center","longitude":118.489851,"latitude":24.724853,"cost_per_hour":2.0,"free_after":"21:45","pay_from":"1:04"},
  {"id":28,"road_name":"Amoth","road_suffix":"Road","longitude":44.6345848,"latitude":40.2004541,"cost_per_hour":1.7,"free_after":"19:42","pay_from":"2:42"},
  {"id":29,"road_name":"Arkansas","road_suffix":"Alley","longitude":49.0652963,"latitude":-18.8200534,"cost_per_hour":1.6,"free_after":"20:09","pay_from":"5:40"},
  {"id":30,"road_name":"Algoma","road_suffix":"Lane","longitude":-0.705495,"latitude":48.0395425,"cost_per_hour":1.6,"free_after":"17:56","pay_from":"4:21"},
  {"id":31,"road_name":"Bluestem","road_suffix":"Parkway","longitude":34.842421,"latitude":31.853167,"cost_per_hour":1.1,"free_after":"19:51","pay_from":"1:17"},
  {"id":32,"road_name":"Blue Bill Park","road_suffix":"Trail","longitude":91.186911,"latitude":23.46188,"cost_per_hour":1.9,"free_after":"20:15","pay_from":"6:21"},
  {"id":33,"road_name":"Gina","road_suffix":"Point","longitude":14.776605,"latitude":56.1908828,"cost_per_hour":2.4,"free_after":"17:31","pay_from":"4:52"},
  {"id":34,"road_name":"Haas","road_suffix":"Parkway","longitude":100.824707,"latitude":24.745135,"cost_per_hour":1.6,"free_after":"16:33","pay_from":"4:52"},
  {"id":35,"road_name":"Briar Crest","road_suffix":"Place","longitude":118.036796,"latitude":28.2279,"cost_per_hour":1.3,"free_after":"19:46","pay_from":"3:37"},
  {"id":36,"road_name":"Stone Corner","road_suffix":"Center","longitude":66.0285106,"latitude":37.8163881,"cost_per_hour":1.0,"free_after":"20:25","pay_from":"1:45"},
  {"id":37,"road_name":"Kinsman","road_suffix":"Circle","longitude":14.6312221,"latitude":45.2220415,"cost_per_hour":1.8,"free_after":"20:14","pay_from":"5:01"},
  {"id":38,"road_name":"Ilene","road_suffix":"Lane","longitude":102.1609718,"latitude":14.72328,"cost_per_hour":1.4,"free_after":"17:25","pay_from":"1:54"},
  {"id":39,"road_name":"Bartillon","road_suffix":"Trail","longitude":33.730793,"latitude":49.7888028,"cost_per_hour":1.0,"free_after":"21:27","pay_from":"2:12"},
  {"id":40,"road_name":"Springs","road_suffix":"Trail","longitude":20.2147157,"latitude":41.4942587,"cost_per_hour":2.4,"free_after":"17:14","pay_from":"2:19"},
  {"id":41,"road_name":"Melrose","road_suffix":"Plaza","longitude":18.3329704,"latitude":50.655135,"cost_per_hour":1.4,"free_after":"16:27","pay_from":"4:55"},
  {"id":42,"road_name":"Carey","road_suffix":"Park","longitude":-91.3019094,"latitude":14.7174829,"cost_per_hour":1.6,"free_after":"18:30","pay_from":"0:35"},
  {"id":43,"road_name":"Comanche","road_suffix":"Crossing","longitude":-25.8207556,"latitude":37.8904348,"cost_per_hour":2.1,"free_after":"16:05","pay_from":"1:00"},
  {"id":44,"road_name":"Anthes","road_suffix":"Road","longitude":35.11894,"latitude":31.83366,"cost_per_hour":1.6,"free_after":"16:54","pay_from":"2:37"},
  {"id":45,"road_name":"Carpenter","road_suffix":"Park","longitude":18.068285,"latitude":59.312956,"cost_per_hour":1.6,"free_after":"21:36","pay_from":"6:19"},
  {"id":46,"road_name":"Artisan","road_suffix":"Circle","longitude":109.9854145,"latitude":-7.1477523,"cost_per_hour":2.4,"free_after":"20:22","pay_from":"3:36"},
  {"id":47,"road_name":"Vidon","road_suffix":"Trail","longitude":-122.42,"latitude":37.78,"cost_per_hour":0.7,"free_after":"17:08","pay_from":"5:02"},
  {"id":48,"road_name":"David","road_suffix":"Avenue","longitude":113.093384,"latitude":22.58405,"cost_per_hour":0.7,"free_after":"18:13","pay_from":"5:37"},
  {"id":49,"road_name":"Northwestern","road_suffix":"Road","longitude":119.2029497,"latitude":36.7144184,"cost_per_hour":1.5,"free_after":"22:07","pay_from":"5:51"},
  {"id":50,"road_name":"Lukken","road_suffix":"Road","longitude":25.4970466,"latitude":-24.3965818,"cost_per_hour":1.9,"free_after":"19:51","pay_from":"3:57"},
  {"id":51,"road_name":"Straubel","road_suffix":"Crossing","longitude":-88.6458421,"latitude":15.0312765,"cost_per_hour":2.4,"free_after":"17:57","pay_from":"0:31"},
  {"id":52,"road_name":"Fairfield","road_suffix":"Drive","longitude":118.244769,"latitude":28.682309,"cost_per_hour":1.0,"free_after":"22:16","pay_from":"2:21"},
  {"id":53,"road_name":"Blue Bill Park","road_suffix":"Junction","longitude":-71.693538,"latitude":46.7498338,"cost_per_hour":1.2,"free_after":"19:32","pay_from":"1:15"},
  {"id":54,"road_name":"Spohn","road_suffix":"Avenue","longitude":3.5033042,"latitude":6.5959532,"cost_per_hour":1.6,"free_after":"18:08","pay_from":"2:59"},
  {"id":55,"road_name":"Emmet","road_suffix":"Place","longitude":108.6235004,"latitude":-6.8016236,"cost_per_hour":0.8,"free_after":"20:37","pay_from":"1:16"},
  {"id":56,"road_name":"Scofield","road_suffix":"Parkway","longitude":-53.2341123,"latitude":47.731518,"cost_per_hour":2.2,"free_after":"22:01","pay_from":"0:36"},
  {"id":57,"road_name":"Jenna","road_suffix":"Way","longitude":107.1484521,"latitude":21.5711978,"cost_per_hour":1.9,"free_after":"17:54","pay_from":"1:10"},
  {"id":58,"road_name":"Barnett","road_suffix":"Trail","longitude":116.952766,"latitude":31.466526,"cost_per_hour":2.4,"free_after":"16:19","pay_from":"4:31"},
  {"id":59,"road_name":"Fremont","road_suffix":"Crossing","longitude":39.645666,"latitude":52.64321,"cost_per_hour":2.0,"free_after":"20:04","pay_from":"2:05"},
  {"id":60,"road_name":"Sunbrook","road_suffix":"Point","longitude":112.9884237,"latitude":28.2281301,"cost_per_hour":2.5,"free_after":"21:05","pay_from":"0:41"},
  {"id":61,"road_name":"Petterle","road_suffix":"Alley","longitude":36.2020028,"latitude":32.341673,"cost_per_hour":2.4,"free_after":"17:17","pay_from":"2:35"},
  {"id":62,"road_name":"Harper","road_suffix":"Street","longitude":-44.6064582,"latitude":-19.8428824,"cost_per_hour":1.7,"free_after":"18:52","pay_from":"1:06"},
  {"id":63,"road_name":"Anniversary","road_suffix":"Terrace","longitude":103.8280655,"latitude":30.7998721,"cost_per_hour":1.0,"free_after":"19:47","pay_from":"6:04"},
  {"id":64,"road_name":"Blaine","road_suffix":"Pass","longitude":121.6029824,"latitude":-8.7876456,"cost_per_hour":0.9,"free_after":"21:40","pay_from":"5:09"},
  {"id":65,"road_name":"Cordelia","road_suffix":"Hill","longitude":110.983333,"latitude":35.604025,"cost_per_hour":2.4,"free_after":"18:08","pay_from":"4:32"},
  {"id":66,"road_name":"Arrowood","road_suffix":"Road","longitude":-81.3756862,"latitude":13.3875121,"cost_per_hour":1.7,"free_after":"16:33","pay_from":"3:55"},
  {"id":67,"road_name":"Redwing","road_suffix":"Way","longitude":76.9262526,"latitude":52.0404797,"cost_per_hour":0.7,"free_after":"16:52","pay_from":"2:07"},
  {"id":68,"road_name":"Esker","road_suffix":"Lane","longitude":-80.84,"latitude":35.2299999,"cost_per_hour":1.2,"free_after":"20:12","pay_from":"5:28"},
  {"id":69,"road_name":"Westport","road_suffix":"Center","longitude":23.6498494,"latitude":37.9810474,"cost_per_hour":0.6,"free_after":"20:36","pay_from":"5:30"},
  {"id":70,"road_name":"Milwaukee","road_suffix":"Way","longitude":57.7310666,"latitude":-20.2883705,"cost_per_hour":1.2,"free_after":"20:22","pay_from":"4:15"},
  {"id":71,"road_name":"Hallows","road_suffix":"Court","longitude":-13.2317225,"latitude":8.4656765,"cost_per_hour":1.3,"free_after":"19:41","pay_from":"2:52"},
  {"id":72,"road_name":"Mandrake","road_suffix":"Court","longitude":-53.5608275,"latitude":-30.1647807,"cost_per_hour":1.9,"free_after":"16:20","pay_from":"4:57"},
  {"id":73,"road_name":"Oakridge","road_suffix":"Street","longitude":37.671626,"latitude":55.792891,"cost_per_hour":1.2,"free_after":"19:35","pay_from":"4:34"},
  {"id":74,"road_name":"Charing Cross","road_suffix":"Plaza","longitude":-64.1582003,"latitude":-31.3540428,"cost_per_hour":1.7,"free_after":"16:40","pay_from":"6:17"},
  {"id":75,"road_name":"Bluejay","road_suffix":"Junction","longitude":35.2242376,"latitude":57.2790167,"cost_per_hour":1.8,"free_after":"18:08","pay_from":"0:34"},
  {"id":76,"road_name":"Vahlen","road_suffix":"Pass","longitude":129.543632,"latitude":46.344514,"cost_per_hour":0.8,"free_after":"21:18","pay_from":"6:23"},
  {"id":77,"road_name":"Autumn Leaf","road_suffix":"Crossing","longitude":-8.3042536,"latitude":41.3629391,"cost_per_hour":2.3,"free_after":"18:17","pay_from":"5:08"},
  {"id":78,"road_name":"Merrick","road_suffix":"Center","longitude":-9.123079,"latitude":38.6273566,"cost_per_hour":0.9,"free_after":"17:34","pay_from":"3:25"},
  {"id":79,"road_name":"Artisan","road_suffix":"Street","longitude":-54.5432691,"latitude":-21.8047006,"cost_per_hour":1.1,"free_after":"20:43","pay_from":"1:41"},
  {"id":80,"road_name":"Jana","road_suffix":"Pass","longitude":91.8611011,"latitude":24.904539,"cost_per_hour":2.2,"free_after":"21:33","pay_from":"3:15"},
  {"id":81,"road_name":"Glacier Hill","road_suffix":"Park","longitude":115.467884,"latitude":27.706424,"cost_per_hour":1.3,"free_after":"17:18","pay_from":"2:51"},
  {"id":82,"road_name":"Northport","road_suffix":"Plaza","longitude":58.1488829,"latitude":48.8313352,"cost_per_hour":2.3,"free_after":"21:14","pay_from":"2:06"},
  {"id":83,"road_name":"Quincy","road_suffix":"Pass","longitude":-74.5838514,"latitude":46.1223915,"cost_per_hour":1.7,"free_after":"18:05","pay_from":"4:57"},
  {"id":84,"road_name":"Havey","road_suffix":"Pass","longitude":-0.1549619,"latitude":51.444601,"cost_per_hour":1.6,"free_after":"17:24","pay_from":"5:28"},
  {"id":85,"road_name":"Farmco","road_suffix":"Alley","longitude":120.7090355,"latitude":15.5160946,"cost_per_hour":2.5,"free_after":"19:08","pay_from":"3:04"},
  {"id":86,"road_name":"Brown","road_suffix":"Alley","longitude":21.944034,"latitude":42.9963758,"cost_per_hour":0.8,"free_after":"22:02","pay_from":"5:34"},
  {"id":87,"road_name":"Sherman","road_suffix":"Place","longitude":120.8418861,"latitude":5.5433492,"cost_per_hour":1.3,"free_after":"18:24","pay_from":"3:17"},
  {"id":88,"road_name":"Lyons","road_suffix":"Pass","longitude":113.751799,"latitude":23.020673,"cost_per_hour":1.6,"free_after":"16:19","pay_from":"1:13"},
  {"id":89,"road_name":"Maryland","road_suffix":"Terrace","longitude":114.74638,"latitude":23.788392,"cost_per_hour":2.4,"free_after":"20:36","pay_from":"2:54"},
  {"id":90,"road_name":"Cascade","road_suffix":"Pass","longitude":103.640693,"latitude":28.233802,"cost_per_hour":1.3,"free_after":"16:52","pay_from":"6:27"},
  {"id":91,"road_name":"Lyons","road_suffix":"Park","longitude":-50.1858252,"latitude":-22.1007393,"cost_per_hour":1.7,"free_after":"20:28","pay_from":"3:45"},
  {"id":92,"road_name":"Blue Bill Park","road_suffix":"Circle","longitude":28.3622933,"latitude":-26.3448416,"cost_per_hour":2.0,"free_after":"21:08","pay_from":"4:42"},
  {"id":93,"road_name":"Arapahoe","road_suffix":"Place","longitude":110.666614,"latitude":23.883531,"cost_per_hour":1.1,"free_after":"19:55","pay_from":"1:44"},
  {"id":94,"road_name":"Nova","road_suffix":"Alley","longitude":-170.7269854,"latitude":-14.331296,"cost_per_hour":1.8,"free_after":"16:24","pay_from":"2:30"},
  {"id":95,"road_name":"Springview","road_suffix":"Alley","longitude":151.2092955,"latitude":-33.8688197,"cost_per_hour":0.8,"free_after":"17:33","pay_from":"3:06"},
  {"id":96,"road_name":"Arapahoe","road_suffix":"Drive","longitude":17.427272,"latitude":45.2625083,"cost_per_hour":1.1,"free_after":"21:46","pay_from":"1:41"},
  {"id":97,"road_name":"Ruskin","road_suffix":"Way","longitude":-36.5087385,"latitude":-54.281149,"cost_per_hour":1.2,"free_after":"21:51","pay_from":"2:11"},
  {"id":98,"road_name":"Declaration","road_suffix":"Avenue","longitude":108.912375,"latitude":27.236635,"cost_per_hour":0.9,"free_after":"21:00","pay_from":"0:56"},
  {"id":99,"road_name":"Derek","road_suffix":"Hill","longitude":-57.7992243,"latitude":-33.5072907,"cost_per_hour":1.1,"free_after":"19:06","pay_from":"3:42"},
  {"id":100,"road_name":"Dwight","road_suffix":"Street","longitude":18.4823439,"latitude":54.5997042,"cost_per_hour":0.6,"free_after":"22:02","pay_from":"3:44"},
  {"id":101,"road_name":"Johnson","road_suffix":"Center","longitude":-78.9387241,"latitude":36.0038131,"cost_per_hour":1.0,"free_after":"18:39","pay_from":"6:20"},
  {"id":102,"road_name":"Carey","road_suffix":"Junction","longitude":17.2712934,"latitude":44.3398061,"cost_per_hour":2.0,"free_after":"21:11","pay_from":"5:34"},
  {"id":103,"road_name":"Oak Valley","road_suffix":"Place","longitude":124.870243,"latitude":12.532252,"cost_per_hour":2.0,"free_after":"16:55","pay_from":"2:21"},
  {"id":104,"road_name":"Rowland","road_suffix":"Center","longitude":111.9075351,"latitude":-7.3328576,"cost_per_hour":2.0,"free_after":"18:22","pay_from":"4:22"},
  {"id":105,"road_name":"Chinook","road_suffix":"Junction","longitude":17.1532607,"latitude":60.663088,"cost_per_hour":1.7,"free_after":"22:00","pay_from":"5:03"},
  {"id":106,"road_name":"Memorial","road_suffix":"Trail","longitude":119.547248,"latitude":34.33629,"cost_per_hour":2.4,"free_after":"18:35","pay_from":"3:22"},
  {"id":107,"road_name":"Artisan","road_suffix":"Road","longitude":102.827734,"latitude":35.237207,"cost_per_hour":0.7,"free_after":"21:52","pay_from":"5:51"},
  {"id":108,"road_name":"Reinke","road_suffix":"Way","longitude":-123.2679395,"latitude":49.3637828,"cost_per_hour":0.6,"free_after":"18:12","pay_from":"6:08"},
  {"id":109,"road_name":"Calypso","road_suffix":"Hill","longitude":24.7499112,"latitude":2.8045317,"cost_per_hour":2.5,"free_after":"17:21","pay_from":"6:17"},
  {"id":110,"road_name":"Almo","road_suffix":"Place","longitude":104.372949,"latitude":27.018693,"cost_per_hour":1.3,"free_after":"19:01","pay_from":"5:48"},
  {"id":111,"road_name":"Monument","road_suffix":"Hill","longitude":12.5562471,"latitude":55.682227,"cost_per_hour":1.3,"free_after":"16:42","pay_from":"2:34"},
  {"id":112,"road_name":"Northfield","road_suffix":"Place","longitude":-71.8260021,"latitude":8.2563795,"cost_per_hour":0.5,"free_after":"17:56","pay_from":"4:58"},
  {"id":113,"road_name":"Kinsman","road_suffix":"Terrace","longitude":20.57188,"latitude":51.13737,"cost_per_hour":0.6,"free_after":"17:18","pay_from":"2:26"},
  {"id":114,"road_name":"Hauk","road_suffix":"Court","longitude":61.0018,"latitude":41.56055,"cost_per_hour":2.3,"free_after":"17:41","pay_from":"3:48"},
  {"id":115,"road_name":"Crescent Oaks","road_suffix":"Circle","longitude":127.3695176,"latitude":0.7710308,"cost_per_hour":2.0,"free_after":"16:01","pay_from":"6:09"},
  {"id":116,"road_name":"Surrey","road_suffix":"Center","longitude":22.5352853,"latitude":60.7428382,"cost_per_hour":0.5,"free_after":"16:07","pay_from":"5:38"},
  {"id":117,"road_name":"Schurz","road_suffix":"Lane","longitude":120.562211,"latitude":27.483293,"cost_per_hour":2.5,"free_after":"17:18","pay_from":"2:36"},
  {"id":118,"road_name":"La Follette","road_suffix":"Point","longitude":112.217855,"latitude":28.065524,"cost_per_hour":1.1,"free_after":"22:29","pay_from":"3:30"},
  {"id":119,"road_name":"Washington","road_suffix":"Drive","longitude":-9.0573022,"latitude":38.6627574,"cost_per_hour":1.5,"free_after":"19:47","pay_from":"2:48"},
  {"id":120,"road_name":"Pond","road_suffix":"Crossing","longitude":123.237,"latitude":-8.3052,"cost_per_hour":1.1,"free_after":"22:12","pay_from":"2:25"},
  {"id":121,"road_name":"Monterey","road_suffix":"Pass","longitude":13.3643415,"latitude":52.5496772,"cost_per_hour":1.0,"free_after":"18:43","pay_from":"1:44"},
  {"id":122,"road_name":"Buena Vista","road_suffix":"Hill","longitude":9.6323203,"latitude":45.7022525,"cost_per_hour":2.4,"free_after":"22:12","pay_from":"1:22"},
  {"id":123,"road_name":"Di Loreto","road_suffix":"Court","longitude":35.08178,"latitude":31.89609,"cost_per_hour":1.5,"free_after":"20:06","pay_from":"6:25"},
  {"id":124,"road_name":"Wayridge","road_suffix":"Parkway","longitude":124.3277267,"latitude":11.7629173,"cost_per_hour":0.6,"free_after":"17:50","pay_from":"6:14"},
  {"id":125,"road_name":"Garrison","road_suffix":"Center","longitude":-87.8893383,"latitude":14.9817467,"cost_per_hour":0.7,"free_after":"20:42","pay_from":"2:17"},
  {"id":126,"road_name":"Autumn Leaf","road_suffix":"Court","longitude":89.4350462,"latitude":49.0424573,"cost_per_hour":2.0,"free_after":"22:08","pay_from":"3:08"},
  {"id":127,"road_name":"Hanson","road_suffix":"Trail","longitude":-3.1629063,"latitude":7.8005685,"cost_per_hour":0.6,"free_after":"17:33","pay_from":"1:19"},
  {"id":128,"road_name":"Dapin","road_suffix":"Terrace","longitude":-77.3539774,"latitude":18.3051999,"cost_per_hour":1.0,"free_after":"19:56","pay_from":"1:22"},
  {"id":129,"road_name":"Mallard","road_suffix":"Lane","longitude":42.0359711,"latitude":42.0902225,"cost_per_hour":2.4,"free_after":"17:45","pay_from":"5:39"},
  {"id":130,"road_name":"Sunfield","road_suffix":"Alley","longitude":-105.4093552,"latitude":20.8965838,"cost_per_hour":1.4,"free_after":"20:26","pay_from":"4:43"},
  {"id":131,"road_name":"Northfield","road_suffix":"Drive","longitude":18.6353764,"latitude":3.6489578,"cost_per_hour":1.8,"free_after":"16:11","pay_from":"1:41"},
  {"id":132,"road_name":"Division","road_suffix":"Pass","longitude":111.6556388,"latitude":-7.5450262,"cost_per_hour":1.4,"free_after":"22:28","pay_from":"2:58"},
  {"id":133,"road_name":"Butterfield","road_suffix":"Park","longitude":105.7676313,"latitude":26.6679155,"cost_per_hour":0.5,"free_after":"19:18","pay_from":"5:27"},
  {"id":134,"road_name":"Monument","road_suffix":"Drive","longitude":90.286028,"latitude":43.834689,"cost_per_hour":0.9,"free_after":"17:12","pay_from":"1:24"},
  {"id":135,"road_name":"Beilfuss","road_suffix":"Junction","longitude":30.5322273,"latitude":-2.8670033,"cost_per_hour":2.4,"free_after":"22:29","pay_from":"5:26"},
  {"id":136,"road_name":"Comanche","road_suffix":"Park","longitude":-9.1396466,"latitude":38.6015735,"cost_per_hour":2.5,"free_after":"21:03","pay_from":"2:52"},
  {"id":137,"road_name":"Division","road_suffix":"Center","longitude":115.932899,"latitude":27.999411,"cost_per_hour":2.4,"free_after":"21:22","pay_from":"6:25"},
  {"id":138,"road_name":"Arkansas","road_suffix":"Alley","longitude":12.5752968,"latitude":55.6795223,"cost_per_hour":1.7,"free_after":"16:33","pay_from":"1:34"},
  {"id":139,"road_name":"South","road_suffix":"Alley","longitude":116.341395,"latitude":39.726929,"cost_per_hour":1.5,"free_after":"18:11","pay_from":"5:03"},
  {"id":140,"road_name":"Golden Leaf","road_suffix":"Drive","longitude":104.308675,"latitude":24.884626,"cost_per_hour":1.8,"free_after":"17:52","pay_from":"5:20"},
  {"id":141,"road_name":"Truax","road_suffix":"Place","longitude":111.8956112,"latitude":-7.541449,"cost_per_hour":1.9,"free_after":"19:06","pay_from":"2:58"},
  {"id":142,"road_name":"Haas","road_suffix":"Avenue","longitude":111.3158022,"latitude":-7.6645385,"cost_per_hour":1.7,"free_after":"20:02","pay_from":"3:57"},
  {"id":143,"road_name":"Kipling","road_suffix":"Way","longitude":117.35726,"latitude":38.937928,"cost_per_hour":1.9,"free_after":"20:30","pay_from":"2:03"},
  {"id":144,"road_name":"Homewood","road_suffix":"Parkway","longitude":24.0131821,"latitude":57.0408915,"cost_per_hour":1.8,"free_after":"19:21","pay_from":"2:24"},
  {"id":145,"road_name":"Saint Paul","road_suffix":"Crossing","longitude":23.8712999,"latitude":60.8151976,"cost_per_hour":2.1,"free_after":"19:44","pay_from":"4:40"},
  {"id":146,"road_name":"Tony","road_suffix":"Drive","longitude":66.6503928,"latitude":39.9320083,"cost_per_hour":2.4,"free_after":"17:19","pay_from":"1:39"},
  {"id":147,"road_name":"Memorial","road_suffix":"Hill","longitude":-56.7346167,"latitude":-2.6242355,"cost_per_hour":2.1,"free_after":"20:39","pay_from":"2:41"},
  {"id":148,"road_name":"West","road_suffix":"Plaza","longitude":29.7380779,"latitude":60.3599544,"cost_per_hour":2.1,"free_after":"21:13","pay_from":"3:00"},
  {"id":149,"road_name":"Pennsylvania","road_suffix":"Way","longitude":-28.626058,"latitude":38.5328,"cost_per_hour":0.9,"free_after":"18:40","pay_from":"0:56"},
  {"id":150,"road_name":"Crowley","road_suffix":"Parkway","longitude":3.9470396,"latitude":7.3775355,"cost_per_hour":1.8,"free_after":"17:49","pay_from":"4:21"},
  {"id":151,"road_name":"Dapin","road_suffix":"Trail","longitude":107.3375791,"latitude":16.503112,"cost_per_hour":2.1,"free_after":"21:29","pay_from":"5:52"},
  {"id":152,"road_name":"Debs","road_suffix":"Street","longitude":10.7477822,"latitude":59.9278844,"cost_per_hour":0.7,"free_after":"20:38","pay_from":"6:20"},
  {"id":153,"road_name":"Porter","road_suffix":"Hill","longitude":-8.3545704,"latitude":52.5593605,"cost_per_hour":1.3,"free_after":"17:19","pay_from":"1:47"},
  {"id":154,"road_name":"Stang","road_suffix":"Road","longitude":-99.1476908,"latitude":19.3803931,"cost_per_hour":1.6,"free_after":"16:56","pay_from":"4:04"},
  {"id":155,"road_name":"Kipling","road_suffix":"Road","longitude":111.1160864,"latitude":-6.6549447,"cost_per_hour":2.1,"free_after":"19:00","pay_from":"6:03"},
  {"id":156,"road_name":"Hanover","road_suffix":"Street","longitude":117.500558,"latitude":40.417358,"cost_per_hour":1.7,"free_after":"17:45","pay_from":"5:28"},
  {"id":157,"road_name":"Warbler","road_suffix":"Junction","longitude":101.7805781,"latitude":56.3041802,"cost_per_hour":2.0,"free_after":"20:42","pay_from":"6:02"},
  {"id":158,"road_name":"David","road_suffix":"Center","longitude":-77.3472943,"latitude":37.9414132,"cost_per_hour":2.3,"free_after":"21:19","pay_from":"4:56"},
  {"id":159,"road_name":"Nova","road_suffix":"Road","longitude":109.667164,"latitude":28.90499,"cost_per_hour":0.7,"free_after":"20:36","pay_from":"4:27"},
  {"id":160,"road_name":"Melvin","road_suffix":"Plaza","longitude":106.3265126,"latitude":21.0345812,"cost_per_hour":2.1,"free_after":"22:14","pay_from":"2:40"},
  {"id":161,"road_name":"Bobwhite","road_suffix":"Parkway","longitude":-105.4093552,"latitude":20.8965838,"cost_per_hour":1.4,"free_after":"16:07","pay_from":"3:20"},
  {"id":162,"road_name":"Blue Bill Park","road_suffix":"Drive","longitude":68.089484,"latitude":33.1911812,"cost_per_hour":1.6,"free_after":"16:09","pay_from":"6:23"},
  {"id":163,"road_name":"Arizona","road_suffix":"Trail","longitude":108.95974,"latitude":34.197813,"cost_per_hour":1.5,"free_after":"20:25","pay_from":"3:43"},
  {"id":164,"road_name":"Morning","road_suffix":"Lane","longitude":19.7710732,"latitude":41.5094765,"cost_per_hour":0.8,"free_after":"19:37","pay_from":"4:46"},
  {"id":165,"road_name":"Fieldstone","road_suffix":"Road","longitude":120.7213113,"latitude":13.0748879,"cost_per_hour":0.7,"free_after":"18:48","pay_from":"3:25"},
  {"id":166,"road_name":"Talisman","road_suffix":"Lane","longitude":14.1751311,"latitude":49.1478969,"cost_per_hour":1.0,"free_after":"18:43","pay_from":"5:14"},
  {"id":167,"road_name":"Monument","road_suffix":"Point","longitude":-99.4526826,"latitude":18.2886378,"cost_per_hour":1.9,"free_after":"19:42","pay_from":"0:47"},
  {"id":168,"road_name":"Southridge","road_suffix":"Crossing","longitude":-69.1014935,"latitude":-16.4981761,"cost_per_hour":1.6,"free_after":"19:03","pay_from":"2:20"},
  {"id":169,"road_name":"Russell","road_suffix":"Way","longitude":44.49332,"latitude":36.27815,"cost_per_hour":1.2,"free_after":"22:21","pay_from":"1:51"},
  {"id":170,"road_name":"2nd","road_suffix":"Place","longitude":18.1072924,"latitude":-19.5728709,"cost_per_hour":2.4,"free_after":"18:51","pay_from":"2:17"},
  {"id":171,"road_name":"Holmberg","road_suffix":"Pass","longitude":22.6516099,"latitude":50.002337,"cost_per_hour":1.4,"free_after":"16:59","pay_from":"6:05"},
  {"id":172,"road_name":"Almo","road_suffix":"Junction","longitude":-80.017511,"latitude":32.8676912,"cost_per_hour":1.5,"free_after":"20:40","pay_from":"4:39"},
  {"id":173,"road_name":"Riverside","road_suffix":"Park","longitude":113.740529,"latitude":34.395562,"cost_per_hour":2.2,"free_after":"22:18","pay_from":"4:05"},
  {"id":174,"road_name":"Blaine","road_suffix":"Trail","longitude":123.8822107,"latitude":10.3307399,"cost_per_hour":0.5,"free_after":"19:21","pay_from":"4:48"},
  {"id":175,"road_name":"Washington","road_suffix":"Parkway","longitude":101.14473,"latitude":24.187566,"cost_per_hour":0.6,"free_after":"17:22","pay_from":"4:14"},
  {"id":176,"road_name":"Warrior","road_suffix":"Way","longitude":-72.658867,"latitude":-14.16568,"cost_per_hour":2.0,"free_after":"19:52","pay_from":"0:47"},
  {"id":177,"road_name":"Ronald Regan","road_suffix":"Point","longitude":122.673813,"latitude":8.1219,"cost_per_hour":1.4,"free_after":"16:56","pay_from":"3:05"},
  {"id":178,"road_name":"Annamark","road_suffix":"Drive","longitude":121.0220037,"latitude":14.5338735,"cost_per_hour":1.4,"free_after":"18:50","pay_from":"0:43"},
  {"id":179,"road_name":"Starling","road_suffix":"Street","longitude":-13.0961989,"latitude":8.2158527,"cost_per_hour":1.8,"free_after":"19:12","pay_from":"1:43"},
  {"id":180,"road_name":"Golden Leaf","road_suffix":"Parkway","longitude":111.4648515,"latitude":-6.7347875,"cost_per_hour":0.6,"free_after":"18:37","pay_from":"1:53"},
  {"id":181,"road_name":"Kingsford","road_suffix":"Avenue","longitude":115.245001,"latitude":28.924679,"cost_per_hour":0.7,"free_after":"18:42","pay_from":"3:05"},
  {"id":182,"road_name":"Vera","road_suffix":"Street","longitude":-97.04234,"latitude":49.60559,"cost_per_hour":1.3,"free_after":"16:28","pay_from":"3:36"},
  {"id":183,"road_name":"Graceland","road_suffix":"Park","longitude":101.808485,"latitude":36.608183,"cost_per_hour":2.3,"free_after":"18:53","pay_from":"5:15"},
  {"id":184,"road_name":"Glacier Hill","road_suffix":"Way","longitude":-79.2366566,"latitude":22.3287394,"cost_per_hour":1.0,"free_after":"21:10","pay_from":"5:53"},
  {"id":185,"road_name":"American Ash","road_suffix":"Pass","longitude":126.8808872,"latitude":35.8036079,"cost_per_hour":0.6,"free_after":"21:10","pay_from":"0:56"},
  {"id":186,"road_name":"Burning Wood","road_suffix":"Road","longitude":-14.8797594,"latitude":13.6868427,"cost_per_hour":2.5,"free_after":"18:31","pay_from":"2:19"},
  {"id":187,"road_name":"Victoria","road_suffix":"Parkway","longitude":20.0955891,"latitude":39.9481364,"cost_per_hour":1.3,"free_after":"17:11","pay_from":"1:57"},
  {"id":188,"road_name":"Forest","road_suffix":"Road","longitude":-97.5788975,"latitude":27.8222933,"cost_per_hour":1.9,"free_after":"22:15","pay_from":"1:44"},
  {"id":189,"road_name":"Bartillon","road_suffix":"Junction","longitude":87.2508267,"latitude":51.791159,"cost_per_hour":1.9,"free_after":"17:27","pay_from":"1:47"},
  {"id":190,"road_name":"Dottie","road_suffix":"Court","longitude":88.3831008,"latitude":25.9567729,"cost_per_hour":1.4,"free_after":"19:15","pay_from":"3:36"},
  {"id":191,"road_name":"Pepper Wood","road_suffix":"Point","longitude":120.879101,"latitude":31.455948,"cost_per_hour":1.5,"free_after":"19:58","pay_from":"4:11"},
  {"id":192,"road_name":"Prentice","road_suffix":"Parkway","longitude":108.249509,"latitude":31.364902,"cost_per_hour":2.1,"free_after":"19:10","pay_from":"5:39"},
  {"id":193,"road_name":"Forster","road_suffix":"Alley","longitude":106.0845931,"latitude":-6.2998469,"cost_per_hour":0.5,"free_after":"21:05","pay_from":"5:35"},
  {"id":194,"road_name":"Hallows","road_suffix":"Alley","longitude":-99.1504583,"latitude":19.4052965,"cost_per_hour":2.0,"free_after":"17:19","pay_from":"1:16"},
  {"id":195,"road_name":"Coleman","road_suffix":"Way","longitude":120.2781,"latitude":-10.0798,"cost_per_hour":2.2,"free_after":"18:47","pay_from":"4:10"},
  {"id":196,"road_name":"Sullivan","road_suffix":"Way","longitude":-36.1545404,"latitude":-9.367769,"cost_per_hour":1.7,"free_after":"20:33","pay_from":"6:18"},
  {"id":197,"road_name":"Nancy","road_suffix":"Alley","longitude":115.217658,"latitude":37.943121,"cost_per_hour":1.5,"free_after":"21:01","pay_from":"1:29"},
  {"id":198,"road_name":"Linden","road_suffix":"Terrace","longitude":111.5349059,"latitude":-8.135667,"cost_per_hour":0.6,"free_after":"16:03","pay_from":"4:10"},
  {"id":199,"road_name":"Sachs","road_suffix":"Junction","longitude":16.5376529,"latitude":51.669945,"cost_per_hour":1.3,"free_after":"19:58","pay_from":"6:03"},
  {"id":200,"road_name":"Kedzie","road_suffix":"Place","longitude":24.8029784,"latitude":53.1501463,"cost_per_hour":2.0,"free_after":"19:47","pay_from":"4:04"},
  {"id":201,"road_name":"Russell","road_suffix":"Parkway","longitude":23.3819761,"latitude":41.1266172,"cost_per_hour":2.3,"free_after":"18:40","pay_from":"5:05"},
  {"id":202,"road_name":"Mayer","road_suffix":"Park","longitude":-57.536292,"latitude":-25.3961603,"cost_per_hour":0.9,"free_after":"16:14","pay_from":"0:58"},
  {"id":203,"road_name":"Homewood","road_suffix":"Circle","longitude":19.826521,"latitude":53.2625544,"cost_per_hour":2.1,"free_after":"17:56","pay_from":"2:31"},
  {"id":204,"road_name":"Doe Crossing","road_suffix":"Avenue","longitude":124.5403,"latitude":-8.1654,"cost_per_hour":2.1,"free_after":"19:13","pay_from":"3:59"},
  {"id":205,"road_name":"Ramsey","road_suffix":"Junction","longitude":36.8458837,"latitude":-1.2816645,"cost_per_hour":1.6,"free_after":"17:00","pay_from":"1:59"},
  {"id":206,"road_name":"Eastwood","road_suffix":"Point","longitude":118.432941,"latitude":31.352859,"cost_per_hour":2.2,"free_after":"21:30","pay_from":"4:21"},
  {"id":207,"road_name":"Pearson","road_suffix":"Street","longitude":13.5559769,"latitude":49.5642187,"cost_per_hour":2.2,"free_after":"21:20","pay_from":"4:24"},
  {"id":208,"road_name":"Arizona","road_suffix":"Way","longitude":-39.2791011,"latitude":-7.3811967,"cost_per_hour":2.2,"free_after":"16:01","pay_from":"1:14"},
  {"id":209,"road_name":"Dayton","road_suffix":"Court","longitude":16.2304569,"latitude":51.31653,"cost_per_hour":2.3,"free_after":"19:43","pay_from":"1:59"},
  {"id":210,"road_name":"Ilene","road_suffix":"Street","longitude":130.897445,"latitude":-3.8847265,"cost_per_hour":1.3,"free_after":"20:52","pay_from":"2:04"},
  {"id":211,"road_name":"Forster","road_suffix":"Place","longitude":32.5498069,"latitude":29.9668343,"cost_per_hour":1.4,"free_after":"20:28","pay_from":"5:24"},
  {"id":212,"road_name":"Kensington","road_suffix":"Court","longitude":113.916509,"latitude":22.483182,"cost_per_hour":0.6,"free_after":"16:13","pay_from":"6:05"},
  {"id":213,"road_name":"Bonner","road_suffix":"Way","longitude":0.813275,"latitude":46.6473105,"cost_per_hour":0.8,"free_after":"17:05","pay_from":"3:39"},
  {"id":214,"road_name":"Haas","road_suffix":"Court","longitude":56.2482277,"latitude":25.4110762,"cost_per_hour":1.8,"free_after":"17:36","pay_from":"1:12"},
  {"id":215,"road_name":"Hoard","road_suffix":"Alley","longitude":56.1415665,"latitude":57.9887927,"cost_per_hour":0.6,"free_after":"21:07","pay_from":"3:20"},
  {"id":216,"road_name":"Sunfield","road_suffix":"Lane","longitude":42.0911606,"latitude":43.4539508,"cost_per_hour":1.6,"free_after":"16:13","pay_from":"1:35"},
  {"id":217,"road_name":"John Wall","road_suffix":"Alley","longitude":112.5021593,"latitude":-6.9915372,"cost_per_hour":1.6,"free_after":"20:01","pay_from":"2:07"},
  {"id":218,"road_name":"Gale","road_suffix":"Junction","longitude":-7.1636797,"latitude":40.1208803,"cost_per_hour":1.5,"free_after":"18:27","pay_from":"0:41"},
  {"id":219,"road_name":"Havey","road_suffix":"Court","longitude":-79.98,"latitude":40.44,"cost_per_hour":1.1,"free_after":"16:26","pay_from":"2:14"},
  {"id":220,"road_name":"Onsgard","road_suffix":"Junction","longitude":-8.4334674,"latitude":41.3888512,"cost_per_hour":1.6,"free_after":"16:23","pay_from":"4:50"},
  {"id":221,"road_name":"Forest Dale","road_suffix":"Park","longitude":-86.2945627,"latitude":15.4726227,"cost_per_hour":0.8,"free_after":"21:21","pay_from":"4:00"},
  {"id":222,"road_name":"Shopko","road_suffix":"Lane","longitude":32.6123944,"latitude":57.6466053,"cost_per_hour":2.5,"free_after":"16:35","pay_from":"4:49"},
  {"id":223,"road_name":"Killdeer","road_suffix":"Road","longitude":-5.24798,"latitude":34.94873,"cost_per_hour":1.9,"free_after":"19:50","pay_from":"0:54"},
  {"id":224,"road_name":"Annamark","road_suffix":"Crossing","longitude":-47.2288853,"latitude":-22.8458105,"cost_per_hour":0.6,"free_after":"16:05","pay_from":"1:05"},
  {"id":225,"road_name":"Charing Cross","road_suffix":"Avenue","longitude":120.8129183,"latitude":15.1503549,"cost_per_hour":0.7,"free_after":"19:16","pay_from":"1:31"},
  {"id":226,"road_name":"Waubesa","road_suffix":"Avenue","longitude":-44.2515505,"latitude":-19.4545276,"cost_per_hour":2.2,"free_after":"20:05","pay_from":"3:04"},
  {"id":227,"road_name":"Lakewood","road_suffix":"Center","longitude":36.22461,"latitude":52.27994,"cost_per_hour":1.4,"free_after":"18:07","pay_from":"3:05"},
  {"id":228,"road_name":"Maryland","road_suffix":"Court","longitude":23.9333037,"latitude":37.8833564,"cost_per_hour":1.6,"free_after":"21:29","pay_from":"3:31"},
  {"id":229,"road_name":"Westport","road_suffix":"Park","longitude":115.1767095,"latitude":-8.7223957,"cost_per_hour":0.7,"free_after":"19:08","pay_from":"6:10"},
  {"id":230,"road_name":"Tennessee","road_suffix":"Plaza","longitude":-37.1171012,"latitude":-7.8887727,"cost_per_hour":2.1,"free_after":"21:20","pay_from":"4:30"},
  {"id":231,"road_name":"Gerald","road_suffix":"Court","longitude":115.660142,"latitude":23.301616,"cost_per_hour":2.2,"free_after":"16:15","pay_from":"4:38"},
  {"id":232,"road_name":"Anthes","road_suffix":"Trail","longitude":37.3087599,"latitude":47.0602152,"cost_per_hour":1.9,"free_after":"22:22","pay_from":"3:02"},
  {"id":233,"road_name":"Fulton","road_suffix":"Hill","longitude":-52.94806,"latitude":47.63319,"cost_per_hour":2.1,"free_after":"16:19","pay_from":"1:19"},
  {"id":234,"road_name":"Eggendart","road_suffix":"Center","longitude":22.3879813,"latitude":40.8338937,"cost_per_hour":1.6,"free_after":"19:52","pay_from":"3:36"},
  {"id":235,"road_name":"Hoepker","road_suffix":"Parkway","longitude":113.733313,"latitude":30.93908,"cost_per_hour":1.7,"free_after":"22:14","pay_from":"3:33"},
  {"id":236,"road_name":"Mariners Cove","road_suffix":"Lane","longitude":-58.5197163,"latitude":-34.5926613,"cost_per_hour":1.6,"free_after":"17:58","pay_from":"1:22"},
  {"id":237,"road_name":"Fieldstone","road_suffix":"Hill","longitude":-99.0474345,"latitude":19.2859752,"cost_per_hour":1.6,"free_after":"22:16","pay_from":"6:27"},
  {"id":238,"road_name":"Jenifer","road_suffix":"Lane","longitude":110.5394227,"latitude":-7.6589782,"cost_per_hour":1.1,"free_after":"16:38","pay_from":"5:08"},
  {"id":239,"road_name":"Holy Cross","road_suffix":"Junction","longitude":20.1323725,"latitude":49.4705944,"cost_per_hour":0.9,"free_after":"18:36","pay_from":"1:51"},
  {"id":240,"road_name":"Helena","road_suffix":"Hill","longitude":116.4425998,"latitude":39.9224685,"cost_per_hour":1.1,"free_after":"21:59","pay_from":"2:32"},
  {"id":241,"road_name":"Burrows","road_suffix":"Drive","longitude":33.2391334,"latitude":0.465467,"cost_per_hour":1.3,"free_after":"22:18","pay_from":"6:27"},
  {"id":242,"road_name":"Sheridan","road_suffix":"Avenue","longitude":101.664881,"latitude":3.116134,"cost_per_hour":1.8,"free_after":"18:47","pay_from":"2:18"},
  {"id":243,"road_name":"Blackbird","road_suffix":"Trail","longitude":138.3046891,"latitude":38.1600508,"cost_per_hour":0.8,"free_after":"22:13","pay_from":"4:14"},
  {"id":244,"road_name":"Sunbrook","road_suffix":"Lane","longitude":122.612261,"latitude":-5.456385,"cost_per_hour":2.2,"free_after":"20:52","pay_from":"1:20"},
  {"id":245,"road_name":"Calypso","road_suffix":"Terrace","longitude":108.1132212,"latitude":-7.3571693,"cost_per_hour":1.2,"free_after":"21:10","pay_from":"4:36"},
  {"id":246,"road_name":"Monica","road_suffix":"Parkway","longitude":14.4817813,"latitude":50.3539017,"cost_per_hour":0.5,"free_after":"19:38","pay_from":"0:30"},
  {"id":247,"road_name":"Crownhardt","road_suffix":"Terrace","longitude":106.8809319,"latitude":-6.4933318,"cost_per_hour":1.9,"free_after":"18:49","pay_from":"5:09"},
  {"id":248,"road_name":"Glacier Hill","road_suffix":"Hill","longitude":-121.9416226,"latitude":37.3189149,"cost_per_hour":2.1,"free_after":"16:11","pay_from":"0:54"},
  {"id":249,"road_name":"Everett","road_suffix":"Place","longitude":-116.80238,"latitude":54.40007,"cost_per_hour":0.5,"free_after":"20:49","pay_from":"5:31"},
  {"id":250,"road_name":"6th","road_suffix":"Parkway","longitude":120.758543,"latitude":30.753924,"cost_per_hour":2.5,"free_after":"19:36","pay_from":"4:03"},
  {"id":251,"road_name":"Elgar","road_suffix":"Way","longitude":13.3993839,"latitude":52.3824851,"cost_per_hour":0.6,"free_after":"18:07","pay_from":"1:53"},
  {"id":252,"road_name":"Dennis","road_suffix":"Drive","longitude":-71.304474,"latitude":7.44891,"cost_per_hour":1.2,"free_after":"21:38","pay_from":"4:51"},
  {"id":253,"road_name":"Washington","road_suffix":"Trail","longitude":-8.803326,"latitude":39.4113773,"cost_per_hour":1.6,"free_after":"22:14","pay_from":"2:33"},
  {"id":254,"road_name":"1st","road_suffix":"Alley","longitude":118.279198,"latitude":29.915093,"cost_per_hour":1.4,"free_after":"21:15","pay_from":"1:19"},
  {"id":255,"road_name":"Westridge","road_suffix":"Hill","longitude":119.119278,"latitude":34.295348,"cost_per_hour":0.5,"free_after":"21:56","pay_from":"5:31"},
  {"id":256,"road_name":"Basil","road_suffix":"Road","longitude":43.5537167,"latitude":43.4997666,"cost_per_hour":0.6,"free_after":"19:05","pay_from":"1:24"},
  {"id":257,"road_name":"Farwell","road_suffix":"Court","longitude":112.627673,"latitude":41.28802,"cost_per_hour":0.9,"free_after":"21:06","pay_from":"5:22"},
  {"id":258,"road_name":"Rockefeller","road_suffix":"Terrace","longitude":2.2682399,"latitude":48.8373554,"cost_per_hour":1.8,"free_after":"19:01","pay_from":"3:07"},
  {"id":259,"road_name":"Derek","road_suffix":"Street","longitude":119.943575,"latitude":47.17744,"cost_per_hour":0.8,"free_after":"16:40","pay_from":"1:44"},
  {"id":260,"road_name":"Corscot","road_suffix":"Street","longitude":-7.8210803,"latitude":41.2096879,"cost_per_hour":1.0,"free_after":"16:35","pay_from":"3:42"},
  {"id":261,"road_name":"Brickson Park","road_suffix":"Park","longitude":-69.911527,"latitude":18.467605,"cost_per_hour":1.2,"free_after":"16:11","pay_from":"2:52"},
  {"id":262,"road_name":"Stuart","road_suffix":"Alley","longitude":5.4044268,"latitude":8.8525279,"cost_per_hour":1.6,"free_after":"19:55","pay_from":"5:47"},
  {"id":263,"road_name":"Anzinger","road_suffix":"Pass","longitude":18.3655679,"latitude":44.3783113,"cost_per_hour":1.3,"free_after":"21:46","pay_from":"2:44"},
  {"id":264,"road_name":"Bluestem","road_suffix":"Hill","longitude":81.9305699,"latitude":54.3777115,"cost_per_hour":0.5,"free_after":"18:54","pay_from":"1:02"},
  {"id":265,"road_name":"Birchwood","road_suffix":"Alley","longitude":82.7806142,"latitude":52.4934588,"cost_per_hour":2.3,"free_after":"17:28","pay_from":"3:00"},
  {"id":266,"road_name":"Arkansas","road_suffix":"Way","longitude":105.7676313,"latitude":26.6679155,"cost_per_hour":1.4,"free_after":"18:10","pay_from":"2:51"},
  {"id":267,"road_name":"Macpherson","road_suffix":"Pass","longitude":49.9123454,"latitude":26.6519555,"cost_per_hour":2.3,"free_after":"21:29","pay_from":"4:26"},
  {"id":268,"road_name":"Drewry","road_suffix":"Court","longitude":101.778223,"latitude":36.617134,"cost_per_hour":1.7,"free_after":"18:25","pay_from":"1:58"},
  {"id":269,"road_name":"Morrow","road_suffix":"Way","longitude":-99.1227878,"latitude":19.453837,"cost_per_hour":1.1,"free_after":"18:02","pay_from":"0:40"},
  {"id":270,"road_name":"Rockefeller","road_suffix":"Road","longitude":-48.1904503,"latitude":-18.6517964,"cost_per_hour":2.1,"free_after":"21:06","pay_from":"5:41"},
  {"id":271,"road_name":"South","road_suffix":"Circle","longitude":172.0223196,"latitude":-43.7567555,"cost_per_hour":1.2,"free_after":"21:57","pay_from":"2:40"},
  {"id":272,"road_name":"Memorial","road_suffix":"Crossing","longitude":40.2657733,"latitude":60.9754503,"cost_per_hour":0.9,"free_after":"17:37","pay_from":"1:09"},
  {"id":273,"road_name":"Melrose","road_suffix":"Junction","longitude":-0.7609009,"latitude":48.0762327,"cost_per_hour":1.8,"free_after":"20:26","pay_from":"1:56"},
  {"id":274,"road_name":"Saint Paul","road_suffix":"Terrace","longitude":30.3598522,"latitude":59.9388564,"cost_per_hour":1.1,"free_after":"16:24","pay_from":"5:06"},
  {"id":275,"road_name":"Cody","road_suffix":"Place","longitude":153.7133333,"latitude":5.5047222,"cost_per_hour":1.5,"free_after":"18:03","pay_from":"0:55"},
  {"id":276,"road_name":"Maple","road_suffix":"Point","longitude":18.0590482,"latitude":59.3164285,"cost_per_hour":2.0,"free_after":"20:55","pay_from":"2:39"},
  {"id":277,"road_name":"Maple Wood","road_suffix":"Terrace","longitude":85.0828553,"latitude":52.307093,"cost_per_hour":2.2,"free_after":"18:26","pay_from":"4:32"},
  {"id":278,"road_name":"Victoria","road_suffix":"Avenue","longitude":7.413802,"latitude":11.9313228,"cost_per_hour":1.3,"free_after":"17:48","pay_from":"5:47"},
  {"id":279,"road_name":"Granby","road_suffix":"Crossing","longitude":120.6380367,"latitude":15.590487,"cost_per_hour":1.1,"free_after":"22:16","pay_from":"3:57"},
  {"id":280,"road_name":"Nelson","road_suffix":"Road","longitude":-87.16535,"latitude":13.7583256,"cost_per_hour":1.3,"free_after":"19:11","pay_from":"3:16"},
  {"id":281,"road_name":"Mccormick","road_suffix":"Way","longitude":-73.819571,"latitude":5.614775,"cost_per_hour":2.2,"free_after":"17:07","pay_from":"5:44"},
  {"id":282,"road_name":"Lake View","road_suffix":"Crossing","longitude":43.20792,"latitude":43.5621247,"cost_per_hour":1.0,"free_after":"21:54","pay_from":"5:51"},
  {"id":283,"road_name":"Mayer","road_suffix":"Circle","longitude":110.300741,"latitude":29.509067,"cost_per_hour":2.0,"free_after":"21:15","pay_from":"5:42"},
  {"id":284,"road_name":"Cody","road_suffix":"Pass","longitude":-7.888894,"latitude":52.516323,"cost_per_hour":2.3,"free_after":"22:16","pay_from":"1:26"},
  {"id":285,"road_name":"Hauk","road_suffix":"Park","longitude":23.6720959,"latitude":38.4251725,"cost_per_hour":0.7,"free_after":"16:59","pay_from":"4:34"},
  {"id":286,"road_name":"Blaine","road_suffix":"Pass","longitude":106.8500431,"latitude":-6.167924,"cost_per_hour":1.7,"free_after":"16:27","pay_from":"6:25"},
  {"id":287,"road_name":"Truax","road_suffix":"Road","longitude":20.7261064,"latitude":45.3095119,"cost_per_hour":0.8,"free_after":"19:11","pay_from":"4:43"},
  {"id":288,"road_name":"Maple Wood","road_suffix":"Terrace","longitude":36.2359629,"latitude":33.456443,"cost_per_hour":1.1,"free_after":"20:45","pay_from":"3:10"},
  {"id":289,"road_name":"Lighthouse Bay","road_suffix":"Street","longitude":39.0641146,"latitude":51.6591155,"cost_per_hour":2.4,"free_after":"17:40","pay_from":"4:01"},
  {"id":290,"road_name":"Cordelia","road_suffix":"Lane","longitude":26.6700737,"latitude":-3.5943944,"cost_per_hour":1.6,"free_after":"20:09","pay_from":"5:54"},
  {"id":291,"road_name":"Petterle","road_suffix":"Terrace","longitude":32.6333973,"latitude":-20.1914261,"cost_per_hour":1.7,"free_after":"16:38","pay_from":"3:59"},
  {"id":292,"road_name":"Hansons","road_suffix":"Court","longitude":-77.069999,"latitude":-12.0904353,"cost_per_hour":0.9,"free_after":"19:33","pay_from":"6:00"},
  {"id":293,"road_name":"Swallow","road_suffix":"Lane","longitude":-25.7944989,"latitude":37.8589492,"cost_per_hour":2.1,"free_after":"20:28","pay_from":"4:52"},
  {"id":294,"road_name":"Welch","road_suffix":"Crossing","longitude":3.2510427,"latitude":50.6793242,"cost_per_hour":1.5,"free_after":"17:03","pay_from":"2:26"},
  {"id":295,"road_name":"Colorado","road_suffix":"Avenue","longitude":103.3475743,"latitude":3.5897715,"cost_per_hour":2.4,"free_after":"21:31","pay_from":"1:59"},
  {"id":296,"road_name":"Luster","road_suffix":"Circle","longitude":35.6599267,"latitude":33.8088596,"cost_per_hour":1.3,"free_after":"21:32","pay_from":"3:04"},
  {"id":297,"road_name":"South","road_suffix":"Trail","longitude":56.570105,"latitude":56.8813564,"cost_per_hour":1.5,"free_after":"18:56","pay_from":"2:52"},
  {"id":298,"road_name":"Claremont","road_suffix":"Center","longitude":118.041444,"latitude":24.629264,"cost_per_hour":1.7,"free_after":"17:26","pay_from":"1:31"},
  {"id":299,"road_name":"International","road_suffix":"Trail","longitude":21.4274273,"latitude":51.1227795,"cost_per_hour":0.5,"free_after":"22:19","pay_from":"4:20"},
  {"id":300,"road_name":"Sunfield","road_suffix":"Trail","longitude":83.142888,"latitude":49.4753404,"cost_per_hour":0.5,"free_after":"21:28","pay_from":"5:05"},
  {"id":301,"road_name":"Pearson","road_suffix":"Parkway","longitude":7.5655743,"latitude":47.5612569,"cost_per_hour":2.4,"free_after":"16:43","pay_from":"4:34"},
  {"id":302,"road_name":"Oakridge","road_suffix":"Crossing","longitude":33.6063855,"latitude":1.7131812,"cost_per_hour":1.6,"free_after":"20:58","pay_from":"5:17"},
  {"id":303,"road_name":"Prairieview","road_suffix":"Avenue","longitude":113.625328,"latitude":34.746611,"cost_per_hour":1.9,"free_after":"18:56","pay_from":"1:36"},
  {"id":304,"road_name":"Jenifer","road_suffix":"Street","longitude":2.133823,"latitude":41.3641068,"cost_per_hour":0.7,"free_after":"16:01","pay_from":"5:49"},
  {"id":305,"road_name":"Dovetail","road_suffix":"Street","longitude":111.4007597,"latitude":-8.037728,"cost_per_hour":1.7,"free_after":"22:03","pay_from":"4:02"},
  {"id":306,"road_name":"Sloan","road_suffix":"Alley","longitude":40.2100333,"latitude":43.6805415,"cost_per_hour":1.3,"free_after":"18:07","pay_from":"5:46"},
  {"id":307,"road_name":"Knutson","road_suffix":"Point","longitude":133.4789243,"latitude":33.6450129,"cost_per_hour":1.2,"free_after":"17:45","pay_from":"2:26"},
  {"id":308,"road_name":"Toban","road_suffix":"Lane","longitude":15.819336,"latitude":50.5337072,"cost_per_hour":2.2,"free_after":"21:58","pay_from":"4:48"},
  {"id":309,"road_name":"Corscot","road_suffix":"Hill","longitude":126.049702,"latitude":44.988449,"cost_per_hour":0.9,"free_after":"19:43","pay_from":"2:58"},
  {"id":310,"road_name":"5th","road_suffix":"Court","longitude":97.360984,"latitude":37.369435,"cost_per_hour":1.1,"free_after":"17:57","pay_from":"1:06"},
  {"id":311,"road_name":"Old Shore","road_suffix":"Parkway","longitude":100.7492159,"latitude":26.6849798,"cost_per_hour":1.5,"free_after":"18:25","pay_from":"6:20"},
  {"id":312,"road_name":"Stuart","road_suffix":"Circle","longitude":-79.0878065,"latitude":-5.0039977,"cost_per_hour":1.3,"free_after":"21:57","pay_from":"4:22"},
  {"id":313,"road_name":"Luster","road_suffix":"Lane","longitude":125.1367621,"latitude":6.3726849,"cost_per_hour":1.6,"free_after":"19:53","pay_from":"3:21"},
  {"id":314,"road_name":"Sutteridge","road_suffix":"Way","longitude":123.4665442,"latitude":13.2648001,"cost_per_hour":1.5,"free_after":"21:20","pay_from":"2:09"},
  {"id":315,"road_name":"Monument","road_suffix":"Drive","longitude":111.8330106,"latitude":-7.0510263,"cost_per_hour":2.1,"free_after":"17:22","pay_from":"2:30"},
  {"id":316,"road_name":"Carberry","road_suffix":"Avenue","longitude":113.957037,"latitude":30.917766,"cost_per_hour":1.5,"free_after":"17:34","pay_from":"2:41"},
  {"id":317,"road_name":"Becker","road_suffix":"Terrace","longitude":117.497651,"latitude":38.143169,"cost_per_hour":1.9,"free_after":"20:42","pay_from":"5:16"},
  {"id":318,"road_name":"Hayes","road_suffix":"Terrace","longitude":34.7981,"latitude":50.9077,"cost_per_hour":1.8,"free_after":"19:47","pay_from":"4:55"},
  {"id":319,"road_name":"Cambridge","road_suffix":"Center","longitude":120.6976779,"latitude":41.131963,"cost_per_hour":1.1,"free_after":"17:46","pay_from":"4:48"},
  {"id":320,"road_name":"Clarendon","road_suffix":"Drive","longitude":-61.0573248,"latitude":13.8570986,"cost_per_hour":2.2,"free_after":"18:53","pay_from":"4:47"},
  {"id":321,"road_name":"Cottonwood","road_suffix":"Parkway","longitude":3.460955,"latitude":50.334011,"cost_per_hour":0.7,"free_after":"18:25","pay_from":"5:42"},
  {"id":322,"road_name":"Little Fleur","road_suffix":"Junction","longitude":117.343545,"latitude":28.314706,"cost_per_hour":1.1,"free_after":"21:47","pay_from":"4:38"},
  {"id":323,"road_name":"Bayside","road_suffix":"Circle","longitude":-90.2099999,"latitude":38.63,"cost_per_hour":0.9,"free_after":"18:00","pay_from":"3:26"},
  {"id":324,"road_name":"Swallow","road_suffix":"Alley","longitude":-46.6096926,"latitude":-20.7430332,"cost_per_hour":1.5,"free_after":"20:36","pay_from":"1:16"},
  {"id":325,"road_name":"Banding","road_suffix":"Circle","longitude":2.0308233,"latitude":44.1675867,"cost_per_hour":2.2,"free_after":"19:07","pay_from":"3:39"},
  {"id":326,"road_name":"Eggendart","road_suffix":"Point","longitude":116.537067,"latitude":37.888248,"cost_per_hour":1.8,"free_after":"19:56","pay_from":"4:33"},
  {"id":327,"road_name":"Hermina","road_suffix":"Junction","longitude":112.0008734,"latitude":-8.1373579,"cost_per_hour":1.1,"free_after":"21:46","pay_from":"2:19"},
  {"id":328,"road_name":"Melby","road_suffix":"Plaza","longitude":44.4665485,"latitude":-12.2001475,"cost_per_hour":1.7,"free_after":"21:32","pay_from":"1:09"},
  {"id":329,"road_name":"Waubesa","road_suffix":"Pass","longitude":16.2776842,"latitude":50.1659651,"cost_per_hour":2.5,"free_after":"16:54","pay_from":"0:41"},
  {"id":330,"road_name":"Morning","road_suffix":"Circle","longitude":110.496593,"latitude":24.77848,"cost_per_hour":1.4,"free_after":"20:50","pay_from":"0:32"},
  {"id":331,"road_name":"Westend","road_suffix":"Place","longitude":16.3149736,"latitude":57.9869523,"cost_per_hour":0.7,"free_after":"19:22","pay_from":"1:00"},
  {"id":332,"road_name":"East","road_suffix":"Terrace","longitude":-8.5183398,"latitude":40.8576169,"cost_per_hour":2.3,"free_after":"18:49","pay_from":"4:25"},
  {"id":333,"road_name":"Independence","road_suffix":"Point","longitude":43.9146893,"latitude":40.1814881,"cost_per_hour":1.0,"free_after":"17:34","pay_from":"5:46"},
  {"id":334,"road_name":"Service","road_suffix":"Avenue","longitude":12.0730996,"latitude":57.492982,"cost_per_hour":1.5,"free_after":"20:28","pay_from":"3:32"},
  {"id":335,"road_name":"Namekagon","road_suffix":"Way","longitude":46.7807131,"latitude":40.6073164,"cost_per_hour":0.6,"free_after":"17:03","pay_from":"0:32"},
  {"id":336,"road_name":"Golf View","road_suffix":"Place","longitude":120.8681069,"latitude":17.0852216,"cost_per_hour":1.0,"free_after":"18:04","pay_from":"0:46"},
  {"id":337,"road_name":"Hintze","road_suffix":"Place","longitude":7.2822788,"latitude":51.1730117,"cost_per_hour":2.0,"free_after":"22:07","pay_from":"2:40"},
  {"id":338,"road_name":"Parkside","road_suffix":"Drive","longitude":17.8758236,"latitude":49.871007,"cost_per_hour":1.4,"free_after":"21:06","pay_from":"1:12"},
  {"id":339,"road_name":"Macpherson","road_suffix":"Alley","longitude":112.7554346,"latitude":-7.3682379,"cost_per_hour":0.8,"free_after":"18:00","pay_from":"0:56"},
  {"id":340,"road_name":"Bayside","road_suffix":"Drive","longitude":-60.6298078,"latitude":-32.9979844,"cost_per_hour":2.2,"free_after":"18:05","pay_from":"1:12"},
  {"id":341,"road_name":"Stephen","road_suffix":"Lane","longitude":30.147383,"latitude":-18.1380146,"cost_per_hour":0.8,"free_after":"21:50","pay_from":"3:19"},
  {"id":342,"road_name":"Lien","road_suffix":"Lane","longitude":102.990108,"latitude":32.061895,"cost_per_hour":1.8,"free_after":"21:55","pay_from":"3:50"},
  {"id":343,"road_name":"Del Sol","road_suffix":"Terrace","longitude":81.0478592,"latitude":49.5850143,"cost_per_hour":2.3,"free_after":"17:48","pay_from":"2:46"},
  {"id":344,"road_name":"Hanover","road_suffix":"Place","longitude":-73.762495,"latitude":42.6532844,"cost_per_hour":1.7,"free_after":"18:35","pay_from":"6:23"},
  {"id":345,"road_name":"Longview","road_suffix":"Pass","longitude":-72.2475967,"latitude":-14.1187849,"cost_per_hour":1.5,"free_after":"19:10","pay_from":"2:13"},
  {"id":346,"road_name":"Huxley","road_suffix":"Drive","longitude":27.760764,"latitude":42.2431463,"cost_per_hour":1.5,"free_after":"22:15","pay_from":"4:00"},
  {"id":347,"road_name":"Buell","road_suffix":"Center","longitude":-88.0265257,"latitude":15.7790394,"cost_per_hour":1.3,"free_after":"21:42","pay_from":"5:20"},
  {"id":348,"road_name":"Waywood","road_suffix":"Trail","longitude":102.1714454,"latitude":13.5215952,"cost_per_hour":0.8,"free_after":"22:10","pay_from":"3:31"},
  {"id":349,"road_name":"Badeau","road_suffix":"Trail","longitude":18.4767435,"latitude":44.5428135,"cost_per_hour":1.8,"free_after":"17:42","pay_from":"3:16"},
  {"id":350,"road_name":"Shopko","road_suffix":"Hill","longitude":123.6419711,"latitude":10.103645,"cost_per_hour":2.0,"free_after":"18:01","pay_from":"0:43"},
  {"id":351,"road_name":"Jenifer","road_suffix":"Alley","longitude":34.3039986,"latitude":31.3462005,"cost_per_hour":2.2,"free_after":"21:57","pay_from":"2:17"},
  {"id":352,"road_name":"Oakridge","road_suffix":"Center","longitude":44.6027766,"latitude":40.2544003,"cost_per_hour":2.4,"free_after":"20:24","pay_from":"5:51"},
  {"id":353,"road_name":"Sundown","road_suffix":"Crossing","longitude":-83.2425711,"latitude":22.588115,"cost_per_hour":1.5,"free_after":"18:33","pay_from":"4:05"},
  {"id":354,"road_name":"Fulton","road_suffix":"Hill","longitude":108.6442835,"latitude":-7.5180957,"cost_per_hour":1.0,"free_after":"21:21","pay_from":"6:14"},
  {"id":355,"road_name":"Norway Maple","road_suffix":"Park","longitude":44.3907546,"latitude":40.0911416,"cost_per_hour":0.7,"free_after":"20:32","pay_from":"3:53"},
  {"id":356,"road_name":"Meadow Ridge","road_suffix":"Alley","longitude":113.576677,"latitude":22.270978,"cost_per_hour":0.7,"free_after":"18:31","pay_from":"1:05"},
  {"id":357,"road_name":"Messerschmidt","road_suffix":"Avenue","longitude":117.246702,"latitude":39.16405,"cost_per_hour":2.4,"free_after":"20:54","pay_from":"2:07"},
  {"id":358,"road_name":"Messerschmidt","road_suffix":"Circle","longitude":111.0132542,"latitude":-6.6028802,"cost_per_hour":1.3,"free_after":"20:13","pay_from":"1:36"},
  {"id":359,"road_name":"Alpine","road_suffix":"Plaza","longitude":118.502373,"latitude":26.393274,"cost_per_hour":0.6,"free_after":"22:06","pay_from":"2:46"},
  {"id":360,"road_name":"Stang","road_suffix":"Place","longitude":13.8042382,"latitude":10.7424589,"cost_per_hour":1.8,"free_after":"19:02","pay_from":"4:09"},
  {"id":361,"road_name":"Southridge","road_suffix":"Junction","longitude":120.3608455,"latitude":-9.7262368,"cost_per_hour":1.7,"free_after":"21:51","pay_from":"6:26"},
  {"id":362,"road_name":"Monica","road_suffix":"Avenue","longitude":-87.3872748,"latitude":13.1680197,"cost_per_hour":1.4,"free_after":"21:05","pay_from":"2:34"},
  {"id":363,"road_name":"Jackson","road_suffix":"Circle","longitude":-5.6589414,"latitude":40.9838888,"cost_per_hour":1.0,"free_after":"19:43","pay_from":"1:35"},
  {"id":364,"road_name":"Hoard","road_suffix":"Pass","longitude":116.454205,"latitude":39.914373,"cost_per_hour":0.8,"free_after":"20:35","pay_from":"4:42"},
  {"id":365,"road_name":"Sachtjen","road_suffix":"Point","longitude":-73.53,"latitude":40.77,"cost_per_hour":0.9,"free_after":"20:29","pay_from":"3:09"},
  {"id":366,"road_name":"Mcguire","road_suffix":"Avenue","longitude":99.4117197,"latitude":8.8498948,"cost_per_hour":1.4,"free_after":"20:00","pay_from":"2:02"},
  {"id":367,"road_name":"Dennis","road_suffix":"Way","longitude":-7.888224,"latitude":38.1661758,"cost_per_hour":1.8,"free_after":"19:19","pay_from":"3:09"},
  {"id":368,"road_name":"Anhalt","road_suffix":"Circle","longitude":21.0688871,"latitude":43.8699654,"cost_per_hour":0.9,"free_after":"16:06","pay_from":"1:43"},
  {"id":369,"road_name":"Parkside","road_suffix":"Junction","longitude":-8.0974429,"latitude":41.274605,"cost_per_hour":1.8,"free_after":"16:07","pay_from":"5:16"},
  {"id":370,"road_name":"Grasskamp","road_suffix":"Parkway","longitude":-77.420826,"latitude":8.6663907,"cost_per_hour":1.3,"free_after":"17:39","pay_from":"5:14"},
  {"id":371,"road_name":"Corry","road_suffix":"Road","longitude":116.6930225,"latitude":24.3520171,"cost_per_hour":1.0,"free_after":"21:52","pay_from":"0:34"},
  {"id":372,"road_name":"Northwestern","road_suffix":"Circle","longitude":-71.4692843,"latitude":10.3895862,"cost_per_hour":1.1,"free_after":"18:41","pay_from":"4:30"},
  {"id":373,"road_name":"Victoria","road_suffix":"Park","longitude":44.2287108,"latitude":40.3874319,"cost_per_hour":2.1,"free_after":"20:42","pay_from":"3:31"},
  {"id":374,"road_name":"3rd","road_suffix":"Terrace","longitude":109.949686,"latitude":19.5663947,"cost_per_hour":2.3,"free_after":"19:27","pay_from":"5:39"},
  {"id":375,"road_name":"Debs","road_suffix":"Plaza","longitude":47.1378909,"latitude":40.3706555,"cost_per_hour":0.9,"free_after":"18:02","pay_from":"3:23"},
  {"id":376,"road_name":"Birchwood","road_suffix":"Avenue","longitude":-37.0730823,"latitude":-10.9472468,"cost_per_hour":1.5,"free_after":"17:59","pay_from":"3:28"},
  {"id":377,"road_name":"Shoshone","road_suffix":"Parkway","longitude":10.7295146,"latitude":3.2336472,"cost_per_hour":1.1,"free_after":"22:25","pay_from":"1:36"},
  {"id":378,"road_name":"Valley Edge","road_suffix":"Center","longitude":137.9865313,"latitude":34.6830797,"cost_per_hour":1.8,"free_after":"16:59","pay_from":"0:59"},
  {"id":379,"road_name":"Oneill","road_suffix":"Way","longitude":115.464589,"latitude":38.874434,"cost_per_hour":0.7,"free_after":"17:24","pay_from":"1:08"},
  {"id":380,"road_name":"Mockingbird","road_suffix":"Court","longitude":137.2123102,"latitude":36.6728694,"cost_per_hour":2.2,"free_after":"19:24","pay_from":"2:51"},
  {"id":381,"road_name":"Donald","road_suffix":"Lane","longitude":37.61479,"latitude":55.775282,"cost_per_hour":1.6,"free_after":"18:15","pay_from":"4:52"},
  {"id":382,"road_name":"Mccormick","road_suffix":"Trail","longitude":-49.4262684,"latitude":-16.5030467,"cost_per_hour":1.7,"free_after":"16:10","pay_from":"0:46"},
  {"id":383,"road_name":"Kingsford","road_suffix":"Drive","longitude":106.8974964,"latitude":-6.3503773,"cost_per_hour":1.8,"free_after":"20:03","pay_from":"2:04"},
  {"id":384,"road_name":"Bluestem","road_suffix":"Circle","longitude":-8.385532,"latitude":38.0068597,"cost_per_hour":0.9,"free_after":"21:22","pay_from":"1:59"},
  {"id":385,"road_name":"Del Mar","road_suffix":"Circle","longitude":14.3899392,"latitude":50.4244054,"cost_per_hour":0.7,"free_after":"17:43","pay_from":"5:12"},
  {"id":386,"road_name":"Petterle","road_suffix":"Hill","longitude":167.4164063,"latitude":-16.1001798,"cost_per_hour":2.4,"free_after":"22:25","pay_from":"3:35"},
  {"id":387,"road_name":"Hoffman","road_suffix":"Park","longitude":116.360871,"latitude":30.848103,"cost_per_hour":2.0,"free_after":"18:16","pay_from":"5:29"},
  {"id":388,"road_name":"Hansons","road_suffix":"Pass","longitude":-73.3421243,"latitude":-37.4762431,"cost_per_hour":2.4,"free_after":"16:00","pay_from":"0:44"},
  {"id":389,"road_name":"Holy Cross","road_suffix":"Place","longitude":122.22028,"latitude":7.18028,"cost_per_hour":0.8,"free_after":"16:50","pay_from":"2:39"},
  {"id":390,"road_name":"Knutson","road_suffix":"Alley","longitude":-70.6516913,"latitude":-33.4408815,"cost_per_hour":0.6,"free_after":"21:53","pay_from":"2:36"},
  {"id":391,"road_name":"Ludington","road_suffix":"Court","longitude":118.6323132,"latitude":-8.765095,"cost_per_hour":0.9,"free_after":"17:20","pay_from":"6:06"},
  {"id":392,"road_name":"John Wall","road_suffix":"Center","longitude":41.0234153,"latitude":43.0015252,"cost_per_hour":1.3,"free_after":"16:07","pay_from":"2:52"},
  {"id":393,"road_name":"Kingsford","road_suffix":"Avenue","longitude":112.578178,"latitude":22.326471,"cost_per_hour":1.8,"free_after":"19:23","pay_from":"3:05"},
  {"id":394,"road_name":"Ridgeview","road_suffix":"Court","longitude":-81.7212616,"latitude":12.5084633,"cost_per_hour":1.5,"free_after":"20:01","pay_from":"4:34"},
  {"id":395,"road_name":"Eastwood","road_suffix":"Pass","longitude":-84.6667152,"latitude":9.9900623,"cost_per_hour":1.2,"free_after":"22:12","pay_from":"1:01"},
  {"id":396,"road_name":"Evergreen","road_suffix":"Avenue","longitude":-70.7659102,"latitude":8.2758676,"cost_per_hour":1.0,"free_after":"19:23","pay_from":"3:52"},
  {"id":397,"road_name":"High Crossing","road_suffix":"Hill","longitude":24.1076107,"latitude":35.5155989,"cost_per_hour":0.8,"free_after":"17:16","pay_from":"6:11"},
  {"id":398,"road_name":"Mallard","road_suffix":"Court","longitude":101.799742,"latitude":21.4692055,"cost_per_hour":0.8,"free_after":"17:13","pay_from":"2:58"},
  {"id":399,"road_name":"Florence","road_suffix":"Crossing","longitude":-12.5039922,"latitude":7.5257028,"cost_per_hour":0.8,"free_after":"20:30","pay_from":"3:02"},
  {"id":400,"road_name":"Forest Run","road_suffix":"Center","longitude":44.5278242,"latitude":-12.3502374,"cost_per_hour":1.7,"free_after":"20:51","pay_from":"3:36"},
  {"id":401,"road_name":"Saint Paul","road_suffix":"Way","longitude":-45.1904004,"latitude":-22.8140057,"cost_per_hour":2.4,"free_after":"18:52","pay_from":"4:19"},
  {"id":402,"road_name":"Arizona","road_suffix":"Plaza","longitude":124.7833328,"latitude":6.6999998,"cost_per_hour":1.3,"free_after":"18:43","pay_from":"3:26"},
  {"id":403,"road_name":"Moose","road_suffix":"Plaza","longitude":111.885002,"latitude":-6.898384,"cost_per_hour":1.2,"free_after":"18:05","pay_from":"0:36"},
  {"id":404,"road_name":"Golf Course","road_suffix":"Terrace","longitude":20.4659289,"latitude":50.8816379,"cost_per_hour":0.6,"free_after":"22:00","pay_from":"6:15"},
  {"id":405,"road_name":"Pleasure","road_suffix":"Avenue","longitude":-72.1082897,"latitude":-15.73144,"cost_per_hour":2.0,"free_after":"19:04","pay_from":"3:22"},
  {"id":406,"road_name":"Hagan","road_suffix":"Junction","longitude":112.7975,"latitude":-8.0321,"cost_per_hour":0.6,"free_after":"20:48","pay_from":"3:19"},
  {"id":407,"road_name":"Morningstar","road_suffix":"Crossing","longitude":-74.2349232,"latitude":5.1964397,"cost_per_hour":0.8,"free_after":"17:22","pay_from":"4:55"},
  {"id":408,"road_name":"Warrior","road_suffix":"Lane","longitude":116.580186,"latitude":27.2711,"cost_per_hour":2.0,"free_after":"17:29","pay_from":"3:42"},
  {"id":409,"road_name":"Pawling","road_suffix":"Pass","longitude":120.549753,"latitude":32.200585,"cost_per_hour":1.0,"free_after":"21:43","pay_from":"5:47"},
  {"id":410,"road_name":"Briar Crest","road_suffix":"Parkway","longitude":113.874335,"latitude":23.105394,"cost_per_hour":1.5,"free_after":"20:25","pay_from":"0:45"},
  {"id":411,"road_name":"Emmet","road_suffix":"Crossing","longitude":119.497769,"latitude":30.198506,"cost_per_hour":0.8,"free_after":"20:37","pay_from":"2:47"},
  {"id":412,"road_name":"Bashford","road_suffix":"Road","longitude":23.1322437,"latitude":37.2625973,"cost_per_hour":1.5,"free_after":"16:01","pay_from":"5:07"},
  {"id":413,"road_name":"Gina","road_suffix":"Parkway","longitude":31.7977797,"latitude":30.7292723,"cost_per_hour":1.1,"free_after":"17:08","pay_from":"2:02"},
  {"id":414,"road_name":"Shelley","road_suffix":"Parkway","longitude":119.9484864,"latitude":-3.2325539,"cost_per_hour":0.7,"free_after":"21:43","pay_from":"5:16"},
  {"id":415,"road_name":"Anthes","road_suffix":"Road","longitude":105.2341082,"latitude":10.5682157,"cost_per_hour":2.1,"free_after":"20:30","pay_from":"3:28"},
  {"id":416,"road_name":"Orin","road_suffix":"Lane","longitude":121.0080574,"latitude":14.6103278,"cost_per_hour":1.0,"free_after":"17:22","pay_from":"3:19"},
  {"id":417,"road_name":"Main","road_suffix":"Place","longitude":10.1367166,"latitude":3.7953482,"cost_per_hour":1.6,"free_after":"19:14","pay_from":"1:10"},
  {"id":418,"road_name":"Meadow Vale","road_suffix":"Alley","longitude":114.184427,"latitude":35.897702,"cost_per_hour":1.8,"free_after":"16:11","pay_from":"3:43"},
  {"id":419,"road_name":"Larry","road_suffix":"Circle","longitude":80.5148127,"latitude":5.9368109,"cost_per_hour":1.7,"free_after":"16:32","pay_from":"3:31"},
  {"id":420,"road_name":"Ruskin","road_suffix":"Court","longitude":121.3009798,"latitude":24.9936281,"cost_per_hour":1.8,"free_after":"22:08","pay_from":"3:40"},
  {"id":421,"road_name":"Londonderry","road_suffix":"Junction","longitude":126.0278163,"latitude":44.9857216,"cost_per_hour":1.1,"free_after":"22:17","pay_from":"1:15"},
  {"id":422,"road_name":"Talmadge","road_suffix":"Avenue","longitude":150.1227778,"latitude":8.9908333,"cost_per_hour":1.9,"free_after":"18:18","pay_from":"3:47"},
  {"id":423,"road_name":"Haas","road_suffix":"Drive","longitude":47.3302847,"latitude":-22.8109177,"cost_per_hour":2.0,"free_after":"22:07","pay_from":"0:34"},
  {"id":424,"road_name":"Superior","road_suffix":"Plaza","longitude":112.540463,"latitude":29.531057,"cost_per_hour":0.7,"free_after":"17:25","pay_from":"3:32"},
  {"id":425,"road_name":"Myrtle","road_suffix":"Road","longitude":102.8514837,"latitude":15.2679414,"cost_per_hour":1.0,"free_after":"18:28","pay_from":"4:52"},
  {"id":426,"road_name":"Morningstar","road_suffix":"Road","longitude":121.615088,"latitude":29.926771,"cost_per_hour":1.6,"free_after":"16:05","pay_from":"2:05"},
  {"id":427,"road_name":"Darwin","road_suffix":"Avenue","longitude":113.152357,"latitude":22.788341,"cost_per_hour":0.8,"free_after":"22:28","pay_from":"0:55"},
  {"id":428,"road_name":"Merchant","road_suffix":"Crossing","longitude":-76.467087,"latitude":-12.72924,"cost_per_hour":1.3,"free_after":"20:30","pay_from":"0:53"},
  {"id":429,"road_name":"Kingsford","road_suffix":"Court","longitude":-46.8877455,"latitude":-21.5957703,"cost_per_hour":1.0,"free_after":"19:59","pay_from":"5:30"},
  {"id":430,"road_name":"Lake View","road_suffix":"Way","longitude":139.9056877,"latitude":39.0371526,"cost_per_hour":0.6,"free_after":"19:41","pay_from":"3:01"},
  {"id":431,"road_name":"Warbler","road_suffix":"Park","longitude":117.989199,"latitude":32.777055,"cost_per_hour":2.3,"free_after":"21:41","pay_from":"2:58"},
  {"id":432,"road_name":"Towne","road_suffix":"Park","longitude":35.005,"latitude":31.93592,"cost_per_hour":1.5,"free_after":"17:23","pay_from":"0:51"},
  {"id":433,"road_name":"Victoria","road_suffix":"Pass","longitude":121.0125865,"latitude":14.5493917,"cost_per_hour":1.2,"free_after":"22:22","pay_from":"1:30"},
  {"id":434,"road_name":"Harbort","road_suffix":"Street","longitude":33.4168559,"latitude":69.0603424,"cost_per_hour":2.2,"free_after":"22:12","pay_from":"3:53"},
  {"id":435,"road_name":"Rusk","road_suffix":"Parkway","longitude":-44.5789542,"latitude":-20.0879862,"cost_per_hour":1.9,"free_after":"18:26","pay_from":"3:17"},
  {"id":436,"road_name":"Sunfield","road_suffix":"Crossing","longitude":-64.2371705,"latitude":-31.3582685,"cost_per_hour":2.5,"free_after":"16:35","pay_from":"3:49"},
  {"id":437,"road_name":"Shopko","road_suffix":"Road","longitude":58.1242712,"latitude":52.9850842,"cost_per_hour":1.4,"free_after":"20:14","pay_from":"6:17"},
  {"id":438,"road_name":"Crowley","road_suffix":"Street","longitude":5.4044268,"latitude":8.8525279,"cost_per_hour":0.7,"free_after":"21:15","pay_from":"4:20"},
  {"id":439,"road_name":"Alpine","road_suffix":"Street","longitude":121.8505679,"latitude":-10.5571304,"cost_per_hour":1.2,"free_after":"16:17","pay_from":"3:18"},
  {"id":440,"road_name":"Sachtjen","road_suffix":"Junction","longitude":36.08677,"latitude":35.07437,"cost_per_hour":0.6,"free_after":"17:23","pay_from":"0:40"},
  {"id":441,"road_name":"Schmedeman","road_suffix":"Court","longitude":13.2986314,"latitude":55.8431628,"cost_per_hour":1.7,"free_after":"20:32","pay_from":"2:48"},
  {"id":442,"road_name":"Texas","road_suffix":"Park","longitude":108.4098014,"latitude":-7.3550776,"cost_per_hour":1.5,"free_after":"17:10","pay_from":"0:37"},
  {"id":443,"road_name":"Manitowish","road_suffix":"Junction","longitude":51.3705587,"latitude":26.0243468,"cost_per_hour":2.0,"free_after":"20:00","pay_from":"2:45"},
  {"id":444,"road_name":"East","road_suffix":"Street","longitude":-61.444406,"latitude":15.444313,"cost_per_hour":1.7,"free_after":"20:49","pay_from":"1:37"},
  {"id":445,"road_name":"Sheridan","road_suffix":"Crossing","longitude":17.7458559,"latitude":43.3564826,"cost_per_hour":1.6,"free_after":"16:32","pay_from":"5:49"},
  {"id":446,"road_name":"Maple Wood","road_suffix":"Road","longitude":22.5856811,"latitude":43.1557012,"cost_per_hour":2.3,"free_after":"21:19","pay_from":"0:44"},
  {"id":447,"road_name":"East","road_suffix":"Center","longitude":-122.4494738,"latitude":37.7794055,"cost_per_hour":1.0,"free_after":"22:26","pay_from":"6:01"},
  {"id":448,"road_name":"Oriole","road_suffix":"Road","longitude":-7.2372538,"latitude":39.9226488,"cost_per_hour":1.6,"free_after":"17:40","pay_from":"1:15"},
  {"id":449,"road_name":"Starling","road_suffix":"Center","longitude":110.11101,"latitude":31.459682,"cost_per_hour":1.9,"free_after":"16:40","pay_from":"5:17"},
  {"id":450,"road_name":"Kedzie","road_suffix":"Park","longitude":22.0383248,"latitude":40.9556823,"cost_per_hour":1.1,"free_after":"21:07","pay_from":"0:48"},
  {"id":451,"road_name":"Fairview","road_suffix":"Plaza","longitude":-7.4879608,"latitude":37.3342647,"cost_per_hour":1.0,"free_after":"21:22","pay_from":"3:10"},
  {"id":452,"road_name":"Magdeline","road_suffix":"Junction","longitude":-8.4650216,"latitude":41.5122699,"cost_per_hour":1.0,"free_after":"16:06","pay_from":"2:08"},
  {"id":453,"road_name":"Hanover","road_suffix":"Crossing","longitude":121.0335354,"latitude":14.5598603,"cost_per_hour":0.9,"free_after":"17:05","pay_from":"4:45"},
  {"id":454,"road_name":"Center","road_suffix":"Circle","longitude":32.5401025,"latitude":0.2070254,"cost_per_hour":1.2,"free_after":"21:50","pay_from":"2:09"},
  {"id":455,"road_name":"Straubel","road_suffix":"Center","longitude":15.3726031,"latitude":50.7648787,"cost_per_hour":0.6,"free_after":"21:11","pay_from":"0:40"},
  {"id":456,"road_name":"Carioca","road_suffix":"Road","longitude":-74.881979,"latitude":10.379923,"cost_per_hour":1.4,"free_after":"19:04","pay_from":"6:09"},
  {"id":457,"road_name":"Bunker Hill","road_suffix":"Parkway","longitude":44.1646857,"latitude":44.7800716,"cost_per_hour":1.5,"free_after":"22:21","pay_from":"2:58"},
  {"id":458,"road_name":"Debra","road_suffix":"Lane","longitude":13.9706421,"latitude":49.9609687,"cost_per_hour":1.0,"free_after":"17:38","pay_from":"4:21"},
  {"id":459,"road_name":"Hovde","road_suffix":"Pass","longitude":21.7838411,"latitude":38.1087967,"cost_per_hour":0.5,"free_after":"18:03","pay_from":"0:49"},
  {"id":460,"road_name":"Welch","road_suffix":"Circle","longitude":20.2599325,"latitude":63.827461,"cost_per_hour":0.7,"free_after":"21:49","pay_from":"3:47"},
  {"id":461,"road_name":"Village Green","road_suffix":"Road","longitude":-96.1288426,"latitude":19.1780491,"cost_per_hour":2.5,"free_after":"17:18","pay_from":"1:36"},
  {"id":462,"road_name":"Drewry","road_suffix":"Alley","longitude":116.694361,"latitude":37.105382,"cost_per_hour":2.4,"free_after":"18:55","pay_from":"3:59"},
  {"id":463,"road_name":"Muir","road_suffix":"Drive","longitude":-80.109357,"latitude":-0.7140022,"cost_per_hour":1.1,"free_after":"18:17","pay_from":"2:46"},
  {"id":464,"road_name":"Fremont","road_suffix":"Street","longitude":19.0310166,"latitude":49.5595208,"cost_per_hour":2.0,"free_after":"18:28","pay_from":"1:05"},
  {"id":465,"road_name":"Morningstar","road_suffix":"Junction","longitude":16.1555481,"latitude":49.465597,"cost_per_hour":2.1,"free_after":"20:19","pay_from":"6:15"},
  {"id":466,"road_name":"Vermont","road_suffix":"Crossing","longitude":112.453926,"latitude":34.620202,"cost_per_hour":2.3,"free_after":"20:59","pay_from":"6:13"},
  {"id":467,"road_name":"Forest","road_suffix":"Circle","longitude":111.500774,"latitude":30.297791,"cost_per_hour":0.6,"free_after":"16:18","pay_from":"0:44"},
  {"id":468,"road_name":"Kedzie","road_suffix":"Pass","longitude":43.5299495,"latitude":56.1747295,"cost_per_hour":1.3,"free_after":"16:50","pay_from":"4:36"},
  {"id":469,"road_name":"Clove","road_suffix":"Place","longitude":11.814933,"latitude":57.7550378,"cost_per_hour":1.6,"free_after":"18:00","pay_from":"1:47"},
  {"id":470,"road_name":"Dayton","road_suffix":"Center","longitude":115.297893,"latitude":22.912687,"cost_per_hour":1.6,"free_after":"18:08","pay_from":"0:42"},
  {"id":471,"road_name":"Crest Line","road_suffix":"Plaza","longitude":124.1436001,"latitude":46.160066,"cost_per_hour":0.7,"free_after":"22:28","pay_from":"3:29"},
  {"id":472,"road_name":"Dahle","road_suffix":"Way","longitude":35.150876,"latitude":32.068743,"cost_per_hour":1.4,"free_after":"16:53","pay_from":"1:25"},
  {"id":473,"road_name":"Cody","road_suffix":"Terrace","longitude":-37.3399768,"latitude":-5.8913185,"cost_per_hour":2.0,"free_after":"22:13","pay_from":"3:07"},
  {"id":474,"road_name":"Crescent Oaks","road_suffix":"Parkway","longitude":121.0995111,"latitude":14.6024553,"cost_per_hour":1.6,"free_after":"16:27","pay_from":"3:35"},
  {"id":475,"road_name":"Trailsway","road_suffix":"Way","longitude":-65.0425829,"latitude":-42.814251,"cost_per_hour":1.4,"free_after":"16:44","pay_from":"1:19"},
  {"id":476,"road_name":"Eastlawn","road_suffix":"Lane","longitude":111.7910758,"latitude":23.1421682,"cost_per_hour":1.6,"free_after":"17:04","pay_from":"1:39"},
  {"id":477,"road_name":"Buell","road_suffix":"Street","longitude":34.986653,"latitude":32.119799,"cost_per_hour":1.5,"free_after":"17:41","pay_from":"2:54"},
  {"id":478,"road_name":"Service","road_suffix":"Trail","longitude":89.146146,"latitude":29.171978,"cost_per_hour":1.2,"free_after":"18:12","pay_from":"2:04"},
  {"id":479,"road_name":"Pleasure","road_suffix":"Avenue","longitude":-5.8432964,"latitude":33.1584786,"cost_per_hour":0.6,"free_after":"19:21","pay_from":"4:15"},
  {"id":480,"road_name":"Weeping Birch","road_suffix":"Court","longitude":121.8952135,"latitude":14.0023717,"cost_per_hour":1.3,"free_after":"22:21","pay_from":"5:20"},
  {"id":481,"road_name":"Drewry","road_suffix":"Street","longitude":15.819336,"latitude":50.5337072,"cost_per_hour":2.4,"free_after":"18:01","pay_from":"3:42"},
  {"id":482,"road_name":"Hermina","road_suffix":"Street","longitude":5.0488236,"latitude":47.3080493,"cost_per_hour":2.5,"free_after":"22:29","pay_from":"5:24"},
  {"id":483,"road_name":"Karstens","road_suffix":"Center","longitude":140.5266555,"latitude":37.8925401,"cost_per_hour":0.8,"free_after":"16:12","pay_from":"4:34"},
  {"id":484,"road_name":"Green Ridge","road_suffix":"Trail","longitude":116.6878891,"latitude":23.4082065,"cost_per_hour":1.4,"free_after":"21:45","pay_from":"3:53"},
  {"id":485,"road_name":"Rockefeller","road_suffix":"Lane","longitude":113.173487,"latitude":27.855928,"cost_per_hour":1.2,"free_after":"22:10","pay_from":"1:16"},
  {"id":486,"road_name":"Wayridge","road_suffix":"Street","longitude":-64.1276288,"latitude":-31.4317582,"cost_per_hour":0.6,"free_after":"19:00","pay_from":"5:33"},
  {"id":487,"road_name":"Tennessee","road_suffix":"Drive","longitude":-74.023193,"latitude":-12.95689,"cost_per_hour":2.3,"free_after":"22:18","pay_from":"2:04"},
  {"id":488,"road_name":"Crest Line","road_suffix":"Road","longitude":-8.6708785,"latitude":39.6288756,"cost_per_hour":2.2,"free_after":"17:04","pay_from":"4:02"},
  {"id":489,"road_name":"Weeping Birch","road_suffix":"Place","longitude":101.948349,"latitude":14.5042512,"cost_per_hour":1.7,"free_after":"20:41","pay_from":"5:40"},
  {"id":490,"road_name":"Grayhawk","road_suffix":"Circle","longitude":110.738098,"latitude":30.501816,"cost_per_hour":1.0,"free_after":"21:57","pay_from":"5:13"},
  {"id":491,"road_name":"Cascade","road_suffix":"Plaza","longitude":23.9298885,"latitude":48.2240339,"cost_per_hour":1.3,"free_after":"16:50","pay_from":"6:02"},
  {"id":492,"road_name":"Declaration","road_suffix":"Drive","longitude":-75.5655147,"latitude":-11.3442564,"cost_per_hour":2.5,"free_after":"21:50","pay_from":"6:05"},
  {"id":493,"road_name":"Morningstar","road_suffix":"Junction","longitude":116.144417,"latitude":37.868872,"cost_per_hour":0.7,"free_after":"20:38","pay_from":"3:12"},
  {"id":494,"road_name":"Dexter","road_suffix":"Avenue","longitude":112.4610436,"latitude":41.336619,"cost_per_hour":1.2,"free_after":"20:52","pay_from":"3:08"},
  {"id":495,"road_name":"Loftsgordon","road_suffix":"Pass","longitude":-96.935003,"latitude":18.8826771,"cost_per_hour":2.4,"free_after":"17:14","pay_from":"5:51"},
  {"id":496,"road_name":"Mayfield","road_suffix":"Street","longitude":113.121435,"latitude":23.021478,"cost_per_hour":2.3,"free_after":"21:56","pay_from":"2:49"},
  {"id":497,"road_name":"Ludington","road_suffix":"Trail","longitude":-53.5009992,"latitude":-28.2588438,"cost_per_hour":0.7,"free_after":"20:12","pay_from":"3:59"},
  {"id":498,"road_name":"Utah","road_suffix":"Crossing","longitude":18.7351846,"latitude":50.4808616,"cost_per_hour":1.0,"free_after":"17:15","pay_from":"1:34"},
  {"id":499,"road_name":"Prairie Rose","road_suffix":"Way","longitude":100.3722477,"latitude":14.6823992,"cost_per_hour":1.9,"free_after":"17:32","pay_from":"5:22"},
  {"id":500,"road_name":"Elka","road_suffix":"Junction","longitude":120.9522977,"latitude":13.9300945,"cost_per_hour":1.8,"free_after":"16:25","pay_from":"2:20"},
  {"id":501,"road_name":"Sunnyside","road_suffix":"Circle","longitude":44.7899209,"latitude":40.4670674,"cost_per_hour":1.0,"free_after":"17:26","pay_from":"4:19"},
  {"id":502,"road_name":"Forster","road_suffix":"Lane","longitude":-7.9325424,"latitude":38.5703228,"cost_per_hour":1.3,"free_after":"21:02","pay_from":"0:40"},
  {"id":503,"road_name":"South","road_suffix":"Drive","longitude":106.6232359,"latitude":-6.147133,"cost_per_hour":1.9,"free_after":"16:23","pay_from":"6:02"},
  {"id":504,"road_name":"Laurel","road_suffix":"Junction","longitude":-99.1843676,"latitude":18.8478608,"cost_per_hour":1.0,"free_after":"21:18","pay_from":"1:49"},
  {"id":505,"road_name":"Duke","road_suffix":"Avenue","longitude":124.870243,"latitude":12.532252,"cost_per_hour":0.7,"free_after":"18:38","pay_from":"6:01"},
  {"id":506,"road_name":"Granby","road_suffix":"Hill","longitude":122.456824,"latitude":37.233266,"cost_per_hour":1.7,"free_after":"16:59","pay_from":"6:20"},
  {"id":507,"road_name":"Walton","road_suffix":"Junction","longitude":24.4954399,"latitude":56.8335579,"cost_per_hour":1.5,"free_after":"20:32","pay_from":"3:02"},
  {"id":508,"road_name":"Pawling","road_suffix":"Place","longitude":46.0166879,"latitude":40.8288144,"cost_per_hour":1.8,"free_after":"20:18","pay_from":"1:31"},
  {"id":509,"road_name":"Farmco","road_suffix":"Terrace","longitude":-9.234085,"latitude":39.1457699,"cost_per_hour":0.6,"free_after":"21:09","pay_from":"5:12"},
  {"id":510,"road_name":"Macpherson","road_suffix":"Plaza","longitude":-113.58524,"latitude":50.03332,"cost_per_hour":2.4,"free_after":"20:26","pay_from":"1:12"},
  {"id":511,"road_name":"Homewood","road_suffix":"Trail","longitude":47.3302847,"latitude":-22.8109177,"cost_per_hour":0.8,"free_after":"20:21","pay_from":"5:48"},
  {"id":512,"road_name":"Scofield","road_suffix":"Street","longitude":52.4618922,"latitude":59.6170081,"cost_per_hour":1.5,"free_after":"21:20","pay_from":"1:39"},
  {"id":513,"road_name":"Namekagon","road_suffix":"Crossing","longitude":-82.8101975,"latitude":21.8788609,"cost_per_hour":0.8,"free_after":"18:53","pay_from":"3:27"},
  {"id":514,"road_name":"Rigney","road_suffix":"Way","longitude":5.4072542,"latitude":51.4299433,"cost_per_hour":1.2,"free_after":"22:06","pay_from":"1:11"},
  {"id":515,"road_name":"Merchant","road_suffix":"Parkway","longitude":91.634756,"latitude":47.9795218,"cost_per_hour":0.8,"free_after":"17:53","pay_from":"2:08"},
  {"id":516,"road_name":"Sachs","road_suffix":"Plaza","longitude":114.382541,"latitude":23.084122,"cost_per_hour":1.5,"free_after":"21:00","pay_from":"0:56"},
  {"id":517,"road_name":"Browning","road_suffix":"Hill","longitude":121.4737021,"latitude":31.2303904,"cost_per_hour":2.3,"free_after":"16:33","pay_from":"1:10"},
  {"id":518,"road_name":"Armistice","road_suffix":"Terrace","longitude":109.3781809,"latitude":34.0506434,"cost_per_hour":1.4,"free_after":"19:45","pay_from":"5:00"},
  {"id":519,"road_name":"Springs","road_suffix":"Drive","longitude":-76.1435915,"latitude":3.095417,"cost_per_hour":1.7,"free_after":"16:19","pay_from":"1:32"},
  {"id":520,"road_name":"Elgar","road_suffix":"Pass","longitude":-47.5177229,"latitude":-22.5899119,"cost_per_hour":2.2,"free_after":"17:21","pay_from":"3:13"},
  {"id":521,"road_name":"New Castle","road_suffix":"Terrace","longitude":17.8367375,"latitude":44.9469715,"cost_per_hour":2.5,"free_after":"21:26","pay_from":"4:13"},
  {"id":522,"road_name":"Darwin","road_suffix":"Pass","longitude":20.7929638,"latitude":39.3134407,"cost_per_hour":1.8,"free_after":"22:20","pay_from":"4:44"},
  {"id":523,"road_name":"Garrison","road_suffix":"Plaza","longitude":26.9911288,"latitude":-5.387502,"cost_per_hour":1.2,"free_after":"18:06","pay_from":"3:50"},
  {"id":524,"road_name":"Roth","road_suffix":"Center","longitude":-76.649812,"latitude":5.695633,"cost_per_hour":0.8,"free_after":"18:19","pay_from":"5:36"},
  {"id":525,"road_name":"Eagle Crest","road_suffix":"Circle","longitude":17.3082766,"latitude":49.5242389,"cost_per_hour":1.2,"free_after":"21:48","pay_from":"5:38"},
  {"id":526,"road_name":"Maple Wood","road_suffix":"Road","longitude":107.1010641,"latitude":-6.2671905,"cost_per_hour":1.1,"free_after":"16:28","pay_from":"1:59"},
  {"id":527,"road_name":"Debra","road_suffix":"Lane","longitude":30.38333,"latitude":53.83333,"cost_per_hour":2.1,"free_after":"17:59","pay_from":"5:19"},
  {"id":528,"road_name":"Golf Course","road_suffix":"Avenue","longitude":132.1078523,"latitude":33.9899791,"cost_per_hour":2.2,"free_after":"18:24","pay_from":"5:02"},
  {"id":529,"road_name":"Clarendon","road_suffix":"Trail","longitude":-87.3785917,"latitude":13.1981877,"cost_per_hour":0.9,"free_after":"17:14","pay_from":"4:55"},
  {"id":530,"road_name":"Thackeray","road_suffix":"Trail","longitude":5.1055921,"latitude":52.0330418,"cost_per_hour":2.2,"free_after":"18:34","pay_from":"2:05"},
  {"id":531,"road_name":"Roxbury","road_suffix":"Street","longitude":102.2776838,"latitude":13.4945205,"cost_per_hour":0.7,"free_after":"20:11","pay_from":"6:25"},
  {"id":532,"road_name":"Little Fleur","road_suffix":"Trail","longitude":29.1521095,"latitude":48.3228384,"cost_per_hour":2.3,"free_after":"17:37","pay_from":"2:03"},
  {"id":533,"road_name":"Derek","road_suffix":"Terrace","longitude":105.6705801,"latitude":22.6194565,"cost_per_hour":1.5,"free_after":"16:09","pay_from":"5:14"},
  {"id":534,"road_name":"Sachtjen","road_suffix":"Avenue","longitude":121.4934758,"latitude":14.2462858,"cost_per_hour":2.3,"free_after":"19:59","pay_from":"3:04"},
  {"id":535,"road_name":"Melrose","road_suffix":"Trail","longitude":18.4098275,"latitude":43.8558336,"cost_per_hour":0.6,"free_after":"21:24","pay_from":"2:35"},
  {"id":536,"road_name":"Morning","road_suffix":"Road","longitude":-58.2975552,"latitude":-33.1228052,"cost_per_hour":0.7,"free_after":"16:13","pay_from":"1:18"},
  {"id":537,"road_name":"Ridgeway","road_suffix":"Trail","longitude":20.2934524,"latitude":48.2166359,"cost_per_hour":0.9,"free_after":"17:09","pay_from":"1:44"},
  {"id":538,"road_name":"Bunting","road_suffix":"Point","longitude":121.395538,"latitude":49.571196,"cost_per_hour":1.6,"free_after":"16:36","pay_from":"0:52"},
  {"id":539,"road_name":"South","road_suffix":"Terrace","longitude":-75.6816631,"latitude":6.7884819,"cost_per_hour":0.6,"free_after":"16:49","pay_from":"3:43"},
  {"id":540,"road_name":"Schiller","road_suffix":"Junction","longitude":10.3996452,"latitude":63.4107694,"cost_per_hour":1.4,"free_after":"16:37","pay_from":"3:49"},
  {"id":541,"road_name":"7th","road_suffix":"Trail","longitude":117.326355,"latitude":25.242158,"cost_per_hour":1.6,"free_after":"22:27","pay_from":"4:21"},
  {"id":542,"road_name":"Jackson","road_suffix":"Center","longitude":101.984648,"latitude":38.243169,"cost_per_hour":0.8,"free_after":"22:18","pay_from":"1:50"},
  {"id":543,"road_name":"Johnson","road_suffix":"Pass","longitude":106.7411559,"latitude":-6.3991308,"cost_per_hour":0.9,"free_after":"22:20","pay_from":"3:57"},
  {"id":544,"road_name":"Burrows","road_suffix":"Pass","longitude":14.9720041,"latitude":50.5269291,"cost_per_hour":1.6,"free_after":"20:19","pay_from":"3:52"},
  {"id":545,"road_name":"Harper","road_suffix":"Point","longitude":106.074668,"latitude":30.793647,"cost_per_hour":1.5,"free_after":"20:08","pay_from":"6:04"},
  {"id":546,"road_name":"Red Cloud","road_suffix":"Street","longitude":16.1555481,"latitude":49.465597,"cost_per_hour":0.9,"free_after":"16:36","pay_from":"0:46"},
  {"id":547,"road_name":"Montana","road_suffix":"Crossing","longitude":3.16806,"latitude":50.716719,"cost_per_hour":1.4,"free_after":"17:33","pay_from":"4:57"},
  {"id":548,"road_name":"Kenwood","road_suffix":"Drive","longitude":124.8289296,"latitude":11.5352048,"cost_per_hour":1.7,"free_after":"16:44","pay_from":"2:32"},
  {"id":549,"road_name":"Northport","road_suffix":"Pass","longitude":101.4230264,"latitude":13.8524315,"cost_per_hour":0.7,"free_after":"19:56","pay_from":"4:29"},
  {"id":550,"road_name":"Laurel","road_suffix":"Circle","longitude":31.8144434,"latitude":31.4175388,"cost_per_hour":1.8,"free_after":"17:43","pay_from":"1:03"},
  {"id":551,"road_name":"Thompson","road_suffix":"Way","longitude":135.4203895,"latitude":34.7791206,"cost_per_hour":1.6,"free_after":"21:07","pay_from":"1:50"},
  {"id":552,"road_name":"Kensington","road_suffix":"Avenue","longitude":100.874336,"latitude":26.235575,"cost_per_hour":1.7,"free_after":"16:37","pay_from":"5:59"},
  {"id":553,"road_name":"Brentwood","road_suffix":"Drive","longitude":-84.5511177,"latitude":42.7282811,"cost_per_hour":1.9,"free_after":"19:09","pay_from":"4:17"},
  {"id":554,"road_name":"Monica","road_suffix":"Junction","longitude":18.3642669,"latitude":54.6312426,"cost_per_hour":1.9,"free_after":"18:22","pay_from":"3:13"},
  {"id":555,"road_name":"Graceland","road_suffix":"Drive","longitude":129.9131287,"latitude":61.9639779,"cost_per_hour":1.8,"free_after":"20:38","pay_from":"4:15"},
  {"id":556,"road_name":"Del Mar","road_suffix":"Avenue","longitude":100.3385624,"latitude":7.3293411,"cost_per_hour":0.6,"free_after":"19:23","pay_from":"1:09"},
  {"id":557,"road_name":"Gale","road_suffix":"Drive","longitude":-96.7300158,"latitude":17.0635121,"cost_per_hour":2.2,"free_after":"22:15","pay_from":"2:10"},
  {"id":558,"road_name":"Sachs","road_suffix":"Road","longitude":73.7008274,"latitude":31.4840951,"cost_per_hour":2.3,"free_after":"20:11","pay_from":"5:45"},
  {"id":559,"road_name":"Mifflin","road_suffix":"Pass","longitude":18.2903712,"latitude":51.1644956,"cost_per_hour":1.2,"free_after":"18:41","pay_from":"6:05"},
  {"id":560,"road_name":"Mesta","road_suffix":"Place","longitude":16.8946158,"latitude":45.3982443,"cost_per_hour":1.0,"free_after":"17:49","pay_from":"6:18"},
  {"id":561,"road_name":"Red Cloud","road_suffix":"Point","longitude":-49.1468996,"latitude":-14.5246488,"cost_per_hour":1.1,"free_after":"16:34","pay_from":"4:12"},
  {"id":562,"road_name":"Pine View","road_suffix":"Trail","longitude":120.5657329,"latitude":15.1650908,"cost_per_hour":0.7,"free_after":"16:54","pay_from":"4:45"},
  {"id":563,"road_name":"Rieder","road_suffix":"Road","longitude":18.6517064,"latitude":42.4999931,"cost_per_hour":0.7,"free_after":"17:54","pay_from":"1:24"},
  {"id":564,"road_name":"Chinook","road_suffix":"Court","longitude":24.3903505,"latitude":60.2577358,"cost_per_hour":2.0,"free_after":"21:17","pay_from":"1:04"},
  {"id":565,"road_name":"Havey","road_suffix":"Plaza","longitude":-71.2485941,"latitude":-41.1254857,"cost_per_hour":0.7,"free_after":"20:57","pay_from":"6:28"},
  {"id":566,"road_name":"Bluejay","road_suffix":"Drive","longitude":122.4656415,"latitude":9.6026645,"cost_per_hour":2.2,"free_after":"20:45","pay_from":"2:20"},
  {"id":567,"road_name":"Quincy","road_suffix":"Trail","longitude":113.4296,"latitude":-8.3445,"cost_per_hour":2.2,"free_after":"21:13","pay_from":"1:22"},
  {"id":568,"road_name":"Waxwing","road_suffix":"Terrace","longitude":114.908872,"latitude":26.789958,"cost_per_hour":1.6,"free_after":"16:16","pay_from":"5:30"},
  {"id":569,"road_name":"Marcy","road_suffix":"Crossing","longitude":125.961814,"latitude":46.051126,"cost_per_hour":0.6,"free_after":"18:41","pay_from":"2:31"},
  {"id":570,"road_name":"Gateway","road_suffix":"Alley","longitude":44.419895,"latitude":40.2507786,"cost_per_hour":1.2,"free_after":"19:16","pay_from":"5:22"},
  {"id":571,"road_name":"Mallory","road_suffix":"Lane","longitude":98.9366407,"latitude":45.0152528,"cost_per_hour":1.6,"free_after":"16:41","pay_from":"2:31"},
  {"id":572,"road_name":"Eagle Crest","road_suffix":"Plaza","longitude":122.8283,"latitude":-10.9232,"cost_per_hour":2.0,"free_after":"17:53","pay_from":"4:15"},
  {"id":573,"road_name":"Waubesa","road_suffix":"Alley","longitude":0.108211,"latitude":49.48153,"cost_per_hour":1.2,"free_after":"17:36","pay_from":"5:33"},
  {"id":574,"road_name":"Valley Edge","road_suffix":"Drive","longitude":115.670177,"latitude":37.73892,"cost_per_hour":2.4,"free_after":"20:23","pay_from":"6:12"},
  {"id":575,"road_name":"Pawling","road_suffix":"Plaza","longitude":10.790337,"latitude":59.8436248,"cost_per_hour":2.3,"free_after":"18:09","pay_from":"4:29"},
  {"id":576,"road_name":"Golden Leaf","road_suffix":"Street","longitude":100.721884,"latitude":22.62097,"cost_per_hour":1.0,"free_after":"21:03","pay_from":"2:12"},
  {"id":577,"road_name":"Porter","road_suffix":"Park","longitude":-8.0224709,"latitude":40.356194,"cost_per_hour":1.0,"free_after":"16:37","pay_from":"5:46"},
  {"id":578,"road_name":"Grasskamp","road_suffix":"Way","longitude":2.4751086,"latitude":48.8493975,"cost_per_hour":2.2,"free_after":"19:01","pay_from":"6:13"},
  {"id":579,"road_name":"Havey","road_suffix":"Hill","longitude":124.783718,"latitude":7.363608,"cost_per_hour":2.0,"free_after":"19:34","pay_from":"3:13"},
  {"id":580,"road_name":"Dexter","road_suffix":"Trail","longitude":-7.3093756,"latitude":38.1370922,"cost_per_hour":1.9,"free_after":"17:29","pay_from":"3:31"},
  {"id":581,"road_name":"Pearson","road_suffix":"Hill","longitude":15.0625181,"latitude":51.6406279,"cost_per_hour":2.0,"free_after":"21:23","pay_from":"2:48"},
  {"id":582,"road_name":"Namekagon","road_suffix":"Drive","longitude":123.281809,"latitude":9.258006,"cost_per_hour":1.0,"free_after":"17:42","pay_from":"1:40"},
  {"id":583,"road_name":"Golf","road_suffix":"Street","longitude":174.0057137,"latitude":-41.2895103,"cost_per_hour":0.8,"free_after":"22:29","pay_from":"6:21"},
  {"id":584,"road_name":"Sunfield","road_suffix":"Street","longitude":81.318189,"latitude":43.977331,"cost_per_hour":2.0,"free_after":"19:29","pay_from":"2:17"},
  {"id":585,"road_name":"Graceland","road_suffix":"Junction","longitude":30.6115492,"latitude":64.5950323,"cost_per_hour":1.5,"free_after":"17:29","pay_from":"2:25"},
  {"id":586,"road_name":"Merrick","road_suffix":"Junction","longitude":112.132488,"latitude":34.728584,"cost_per_hour":2.1,"free_after":"16:59","pay_from":"6:26"},
  {"id":587,"road_name":"Sachtjen","road_suffix":"Park","longitude":44.8157566,"latitude":40.5684068,"cost_per_hour":0.9,"free_after":"16:11","pay_from":"1:17"},
  {"id":588,"road_name":"Coleman","road_suffix":"Hill","longitude":110.441976,"latitude":29.470982,"cost_per_hour":2.0,"free_after":"17:34","pay_from":"6:02"},
  {"id":589,"road_name":"Sommers","road_suffix":"Center","longitude":107.9703,"latitude":-7.3312,"cost_per_hour":1.2,"free_after":"18:14","pay_from":"0:50"},
  {"id":590,"road_name":"Atwood","road_suffix":"Lane","longitude":134.5690225,"latitude":-2.6832706,"cost_per_hour":1.9,"free_after":"17:18","pay_from":"0:49"},
  {"id":591,"road_name":"Hovde","road_suffix":"Drive","longitude":-47.1367011,"latitude":-23.3058194,"cost_per_hour":1.7,"free_after":"16:12","pay_from":"2:38"},
  {"id":592,"road_name":"Cherokee","road_suffix":"Alley","longitude":127.3305,"latitude":50.367353,"cost_per_hour":1.9,"free_after":"17:50","pay_from":"0:53"},
  {"id":593,"road_name":"North","road_suffix":"Center","longitude":35.743418,"latitude":0.490107,"cost_per_hour":2.1,"free_after":"16:00","pay_from":"2:37"},
  {"id":594,"road_name":"Heffernan","road_suffix":"Junction","longitude":19.5866652,"latitude":50.1323846,"cost_per_hour":2.2,"free_after":"20:34","pay_from":"0:50"},
  {"id":595,"road_name":"Steensland","road_suffix":"Junction","longitude":100.1947477,"latitude":6.4387946,"cost_per_hour":0.7,"free_after":"19:08","pay_from":"2:56"},
  {"id":596,"road_name":"Florence","road_suffix":"Court","longitude":-73.976024,"latitude":40.7525629,"cost_per_hour":1.8,"free_after":"19:13","pay_from":"2:56"},
  {"id":597,"road_name":"Hudson","road_suffix":"Pass","longitude":123.6755579,"latitude":-10.2689776,"cost_per_hour":1.0,"free_after":"17:37","pay_from":"4:25"},
  {"id":598,"road_name":"Corben","road_suffix":"Pass","longitude":27.9073244,"latitude":-28.8953831,"cost_per_hour":2.4,"free_after":"16:04","pay_from":"3:30"},
  {"id":599,"road_name":"Commercial","road_suffix":"Lane","longitude":13.8716558,"latitude":44.9279556,"cost_per_hour":0.9,"free_after":"18:41","pay_from":"0:39"},
  {"id":600,"road_name":"Arkansas","road_suffix":"Plaza","longitude":36.7442377,"latitude":34.1540161,"cost_per_hour":0.7,"free_after":"21:00","pay_from":"5:01"},
  {"id":601,"road_name":"Lakewood Gardens","road_suffix":"Center","longitude":41.5474702,"latitude":58.4705978,"cost_per_hour":1.5,"free_after":"18:34","pay_from":"4:50"},
  {"id":602,"road_name":"Monument","road_suffix":"Street","longitude":-65.0052144,"latitude":-31.7436794,"cost_per_hour":2.2,"free_after":"20:41","pay_from":"6:09"},
  {"id":603,"road_name":"Doe Crossing","road_suffix":"Alley","longitude":-50.5549719,"latitude":-20.6336382,"cost_per_hour":1.2,"free_after":"19:31","pay_from":"6:18"},
  {"id":604,"road_name":"Northfield","road_suffix":"Alley","longitude":-52.4134746,"latitude":-25.4079504,"cost_per_hour":0.7,"free_after":"18:47","pay_from":"2:21"},
  {"id":605,"road_name":"Summit","road_suffix":"Terrace","longitude":-97.2383178,"latitude":37.6346281,"cost_per_hour":0.9,"free_after":"17:39","pay_from":"2:27"},
  {"id":606,"road_name":"Cordelia","road_suffix":"Street","longitude":44.43702,"latitude":-12.31086,"cost_per_hour":0.9,"free_after":"20:28","pay_from":"2:31"},
  {"id":607,"road_name":"Mosinee","road_suffix":"Way","longitude":116.45252,"latitude":39.909214,"cost_per_hour":2.2,"free_after":"22:13","pay_from":"5:32"},
  {"id":608,"road_name":"Farragut","road_suffix":"Pass","longitude":119.161748,"latitude":36.706962,"cost_per_hour":0.9,"free_after":"18:19","pay_from":"4:47"},
  {"id":609,"road_name":"Warner","road_suffix":"Hill","longitude":-51.1110523,"latitude":-20.6436652,"cost_per_hour":1.6,"free_after":"18:28","pay_from":"4:28"},
  {"id":610,"road_name":"American Ash","road_suffix":"Lane","longitude":29.3627814,"latitude":-19.7775397,"cost_per_hour":1.7,"free_after":"21:30","pay_from":"4:59"},
  {"id":611,"road_name":"Pawling","road_suffix":"Street","longitude":21.2322042,"latitude":50.7917257,"cost_per_hour":1.7,"free_after":"20:29","pay_from":"6:12"},
  {"id":612,"road_name":"Myrtle","road_suffix":"Park","longitude":5.8978018,"latitude":43.4945737,"cost_per_hour":2.4,"free_after":"19:12","pay_from":"5:32"},
  {"id":613,"road_name":"Brickson Park","road_suffix":"Park","longitude":96.5623251,"latitude":16.9075213,"cost_per_hour":0.6,"free_after":"20:37","pay_from":"1:11"},
  {"id":614,"road_name":"Fulton","road_suffix":"Park","longitude":24.4529792,"latitude":0.8070691,"cost_per_hour":1.3,"free_after":"20:46","pay_from":"4:32"},
  {"id":615,"road_name":"Nevada","road_suffix":"Court","longitude":34.3809905,"latitude":-8.707209,"cost_per_hour":0.6,"free_after":"19:10","pay_from":"5:31"},